name,chainName,city,state,id,latitude,longitude,i
AMC CLASSIC Auburn 14,AMC,Auburn,AL,AANHA, 32.62590, -85.45260,1
AMC Summit 16,AMC,Birmingham,AL,AAHLN, 33.44200, -86.73050,1
AMC CLASSIC Marktplatz 10,AMC,Cullman,AL,AATLB, 34.14880, -86.84011,1
AMC CLASSIC Jubilee Square 12,AMC,Daphne,AL,AAQNJ, 30.65490, -87.90610,1
AMC CLASSIC Decatur 12,AMC,Decatur,AL,AAWYC, 34.57228, -87.01745,1
AMC CLASSIC Dothan 6,AMC,Dothan,AL,AAWKS, 31.25100, -85.43030,1
AMC CLASSIC Dothan Pavillion 12,AMC,Dothan,AL,AAVBT, 31.26880, -85.44610,1
AMC CLASSIC Florence 12,AMC,Florence,AL,AAJZV, 34.84360, -87.64700,1
AMC Patton Creek 15,AMC,Hoover,AL,AASVB, 33.37322, -86.81551,1
AMC Valley Bend 18,AMC,Huntsville,AL,AATZX, 34.67200, -86.54320,1
AMC Mobile 16,AMC,Mobile,AL,AALIQ, 30.67313, -88.22161,1
AMC Festival Plaza 16,AMC,Montgomery,AL,AAWWL, 32.34076, -86.17764,1
AMC Chantilly 13,AMC,Montgomery,AL,AAXHC, 32.36010, -86.13420,1
AMC Tiger 13,AMC,Opelika,AL,AAXGB, 32.61213, -85.39116,1
AMC CLASSIC Wharf 15,AMC,Orange Beach,AL,AATZY, 30.29040, -87.62180,1
AMC CLASSIC Prattville 12,AMC,Prattville,AL,AAOLF, 32.46210, -86.40140,1
AMC DINE-IN Vestavia Hills 10,AMC,Vestavia Hills,AL,AARCA, 33.44720, -86.79360,1
AMC Fiesta Square 16,AMC,Fayetteville,AR,AAEHD, 36.10617, -94.14670,1
AMC Chenal 9,AMC,Little Rock,AR,AAUYB, 34.76838, -92.45998,1
AMC Westgate 20,AMC,Glendale,AZ,AAUFH, 33.53500,-112.26120,1
AMC Arrowhead 14,AMC,Glendale,AZ,AACDF, 33.64200,-112.22520,1
AMC Mesa Grand 14,AMC,Mesa,AZ,AANZT, 33.38441,-111.80540,1
AMC Superstition East 12,AMC,Mesa,AZ,AAYDZ, 33.37980,-111.59850,1
AMC Deer Valley 17,AMC,Phoenix,AZ,AAKOT, 33.66622,-112.12400,1
AMC Ahwatukee 24,AMC,Phoenix,AZ,AACGT, 33.31679,-111.97730,1
AMC Desert Ridge 18,AMC,Phoenix,AZ,AAPGJ, 33.67795,-111.97730,1
AMC DINE-IN Esplanade 14,AMC,Phoenix,AZ,AAECR, 33.50812,-112.02760,1
AMC Arizona Center 24,AMC,Phoenix,AZ,AAECS, 33.45337,-112.06920,1
AMC Surprise Pointe 14,AMC,Surprise,AZ,AAUWE, 33.60730,-112.35910,1
AMC Centerpoint 11,AMC,Tempe,AZ,AAXFN, 33.42260,-111.94000,1
AMC Loews Foothills 15,AMC,Tucson,AZ,AAAYI, 32.34050,-111.01300,1
AMC Anaheim GardenWalk 6  ,AMC,Anaheim,CA,AAYPW, 33.80680,-117.91530,1
AMC Santa Anita 16,AMC,Arcadia,CA,AASXA, 34.13547,-118.04880,1
AMC Bakersfield 6,AMC,Bakersfield,CA,AABGQ, 35.36927,-119.04830,1
AMC Brentwood 14,AMC,Brentwood,CA,AAWWW, 37.94574,-121.74080,1
AMC Burbank Town Center 8,AMC,Burbank,CA,AAAPC, 34.18340,-118.31210,1
AMC Burbank 16,AMC,Burbank,CA,AAQZZ, 34.18150,-118.31240,1
AMC Burbank Town Center 6,AMC,Burbank,CA,AABSU, 34.18471,-118.31510,1
AMC DINE-IN Topanga 12,AMC,Canoga Park,CA,AAYWS, 34.19092,-118.60420,1
AMC Porter Ranch 9,AMC,Chatsworth,CA,AAYSU, 34.27534,-118.57320,1
AMC Otay Ranch 12,AMC,Chula Vista,CA,AAUSD, 32.62767,-116.96540,1
AMC Chula Vista 10,AMC,Chula Vista,CA,AAXIP, 32.62995,-117.08470,1
AMC Puente Hills 20,AMC,City Of Industry,CA,AACWY, 33.99380,-117.93050,1
AMC Covina 17,AMC,Covina,CA,AAECT, 34.10635,-117.90680,1
AMC Bay Street 16,AMC,Emeryville,CA,AAQQA, 37.83339,-122.29200,1
AMC DINE-IN Fullerton 20,AMC,Fullerton,CA,AAAOX, 33.86190,-117.92020,1
AMC The Americana at Brand 18,AMC,Glendale,CA,AAYVL, 34.14200,-118.25920,1
AMC Glendora 12,AMC,Glendora,CA,AAVAR, 34.11399,-117.83790,1
AMC Woodbridge 5,AMC,Irvine,CA,AAPIU, 33.67800,-117.80410,1
AMC La Jolla 12,AMC,La Jolla,CA,AABAM, 32.86506,-117.23300,1
AMC La Mirada 7,AMC,La Mirada,CA,AARAN, 33.89850,-118.00520,1
AMC Marina Pacifica 12,AMC,Long Beach,CA,AAAPG, 33.75953,-118.11160,1
AMC The Grove 14,AMC,Los Angeles,CA,AAQGT, 34.07180,-118.35900,1
AMC Century City 15,AMC,Los Angeles,CA,AAAOZ, 34.05740,-118.41400,1
AMC Manteca 16,AMC,Manteca,CA,AAVAD, 37.78159,-121.22760,1
AMC DINE-IN Marina 6,AMC,Marina Del Rey,CA,AAAXA, 33.98729,-118.44120,1
AMC Marina Marketplace 6,AMC,Marina del Rey,CA,AAXIU, 33.98630,-118.43940,1
AMC DINE-IN Montclair Place 12,AMC,Montclair,CA,AAYUR, 34.08670,-117.69380,1
AMC Montebello 10,AMC,Montebello,CA,AAAPJ, 34.03516,-118.09160,1
AMC Atlantic Times Square 14,AMC,Monterey Park,CA,AAWDZ, 34.06680,-118.13430,1
AMC Plaza Bonita 14,AMC,National City,CA,AAUVU, 32.65352,-117.06680,1
AMC NewPark 12,AMC,Newark,CA,AAXSE, 37.52730,-122.00120,1
AMC Northridge 10,AMC,Northridge,CA,AAJMP, 34.24019,-118.55970,1
AMC Norwalk 20,AMC,Norwalk,CA,AABWO, 33.90717,-118.07060,1
AMC DINE-IN Ontario Mills 30,AMC,Ontario,CA,AACGS, 34.07521,-117.55160,1
AMC Orange 30 (AMC Block 30),AMC,Orange,CA,AAJMR, 33.78284,-117.89230,1
AMC DINE-IN Poway 10,AMC,Poway,CA,AABJG, 32.95620,-117.03730,1
AMC Victoria Gardens 12,AMC,Rancho Cucamonga,CA,AATDN, 34.11286,-117.53010,1
AMC DINE-IN South Bay Galleria 16,AMC,Redondo Beach,CA,AAEDS, 33.87051,-118.35280,1
AMC Tyler Galleria 16,AMC,Riverside,CA,AAUSE, 33.91138,-117.46070,1
AMC Palm Promenade 24,AMC,San Diego,CA,AANJY, 32.58360,-117.03550,1
AMC Fashion Valley 18,AMC,San Diego,CA,AAFXQ, 32.77015,-117.16670,1
AMC UTC 14 ,AMC,San Diego,CA,AAWTZ, 32.87100,-117.21400,1
AMC Mission Valley 20,AMC,San Diego,CA,AABNH, 32.76790,-117.14640,1
AMC Metreon 16,AMC,San Francisco,CA,AANEM, 37.78450,-122.40400,1
AMC Kabuki 8,AMC,San Francisco,CA,AADAS, 37.78520,-122.43170,1
AMC Saratoga 14,AMC,San Jose,CA,AAECU, 37.28995,-121.99190,1
AMC Eastridge 15,AMC,San Jose,CA,AATUL, 37.32586,-121.81260,1
AMC Mercado 20,AMC,Santa Clara,CA,AADYN, 37.38879,-121.98620,1
AMC Santa Monica 7,AMC,Santa Monica,CA,AAAPA, 34.01711,-118.49670,1
AMC Sunnyvale 12,AMC,Sunnyvale,CA,AAYTC, 37.37400,-122.03110,1
AMC Temecula 10,AMC,Temecula,CA,AAWGZ, 33.50350,-117.15160,1
AMC Thousand Oaks 14,AMC,Thousand Oaks,CA,AAVIB, 34.18227,-118.88550,1
AMC Del Amo 18,AMC,Torrance,CA,AAUDE, 33.83128,-118.34750,1
AMC Rolling Hills 20,AMC,Torrance,CA,AAAPI, 33.79316,-118.32870,1
AMC Tustin 14 @ The District,AMC,Tustin,CA,AAUNU, 33.69922,-117.83340,1
Universal Cinema AMC at CityWalk Hollywood,AMC,Universal City,CA,AAAWX, 34.14180,-118.35900,1
AMC Fallbrook 7,AMC,West Hills,CA,AAWXX, 34.19225,-118.62560,1
AMC Arapahoe Crossing 16,AMC,Aurora,CO,AAEWN, 39.59430,-104.80080,1
AMC DINE-IN Southlands 16,AMC,Aurora,CO,AATXU, 39.60668,-104.70900,1
AMC Showplace Brighton 12,AMC,Brighton,CO,AATIQ, 39.98263,-104.82340,1
AMC Flatiron Crossing 14,AMC,Broomfield,CO,AAQBW, 39.92963,-105.13710,1
AMC Castle Rock 12,AMC,Castle Rock,CO,AATTI, 39.40310,-104.87970,1
AMC Chapel Hills 13,AMC,Colorado Springs,CO,AAXEB, 38.94690,-104.79290,1
AMC 9+CO 10,AMC,Denver,CO,AAYUA, 39.72960,-104.94120,1
AMC DINE-IN Cherry Creek 8,AMC,Denver,CO,AAADR, 39.71568,-104.95260,1
AMC Fort Collins 10,AMC,Fort Collins,CO,AAKAG, 40.53780,-105.08240,1
AMC Highlands Ranch 24,AMC,Highlands Ranch,CO,AAECM, 39.56027,-104.99110,1
AMC Bowles Crossing 12,AMC,Littleton,CO,AABAT, 39.60980,-105.09120,1
AMC CLASSIC Twenty Mile 10,AMC,Parker,CO,AAQPS, 39.51937,-104.76850,1
AMC Orchard 12,AMC,Westminster,CO,AAUUN, 39.95804,-104.99370,1
AMC Westminster Promenade 24,AMC,Westminster,CO,AAECN, 39.88969,-105.07230,1
AMC Danbury 16,AMC,Danbury,CT,AABQX, 41.41860, -73.41700,1
AMC CLASSIC Lisbon 12,AMC,Lisbon,CT,AATKG, 41.58490, -71.99360,1
AMC Royale 6,AMC,Norwalk,CT,AAKIM, 41.12750, -73.38420,1
AMC Plainville 20,AMC,Plainville,CT,AAOJM, 41.67720, -72.84340,1
AMC SoNo 8,AMC,South Norwalk,CT,AAMVS, 41.10060, -73.42000,1
AMC Southington 12,AMC,Southington,CT,AACLH, 41.56565, -72.90727,1
AMC Majestic 6,AMC,Stamford,CT,AAJGV, 41.05330, -73.54070,1
AMC Landmark 8,AMC,Stamford,CT,AAJGW, 41.05440, -73.53770,1
AMC Marquis 16,AMC,Trumbull,CT,AAKIG, 41.22600, -73.18130,1
AMC Georgetown 14,AMC,Washington,DC,AAQPV, 38.90260, -77.06140,1
AMC Altamonte Mall 18,AMC,Altamonte Springs,FL,AARAA, 28.66165, -81.38864,1
AMC Aventura 24,AMC,Aventura,FL,AAIRQ, 25.95517, -80.14720,1
AMC Bradenton 20,AMC,Bradenton,FL,AAOXM, 27.44808, -82.53237,1
AMC The Regency 20,AMC,Brandon,FL,AADAX, 27.93880, -82.32285,1
AMC Destin Commons 14,AMC,Destin,FL,AAWWM, 30.39224, -86.42365,1
AMC Fleming Island 12,AMC,Fleming Island,FL,AAVIU, 30.10180, -81.71220,1
AMC DINE-IN Coral Ridge 10,AMC,Fort Lauderdale,FL,AADBD, 26.16916, -80.11488,1
AMC Riverview 14,AMC,Gibsonton,FL,AAYTN, 27.84861, -82.35086,1
AMC Hialeah 12,AMC,Hialeah,FL,AAFPD, 25.86610, -80.29870,1
AMC Regency 24,AMC,Jacksonville,FL,AAMGT, 30.32630, -81.54985,1
AMC DINE-IN Disney Springs™ 24,AMC,Lake Buena Vista,FL,AABNU, 28.37568, -81.51714,1
AMC Lake Square 12,AMC,Leesburg,FL,AACGQ, 28.82511, -81.78451,1
AMC Avenue 16,AMC,Melbourne,FL,AATSN, 28.24248, -80.72575,1
AMC Tamiami 18,AMC,Miami,FL,AAVSC, 25.74630, -80.38770,1
AMC Boulevard 10,AMC,Miramar Beach,FL,AAWYG, 30.37900, -86.31700,1
AMC CLASSIC New Smyrna 12,AMC,New Smyrna,FL,AAXMC, 29.00950, -80.91980,1
AMC Merchants Crossing 16,AMC,North Fort Myers,FL,AACCH, 26.68638, -81.90419,1
AMC West Oaks 14,AMC,Ocoee,FL,AACVW, 28.55172, -81.51753,1
AMC Woodlands Square 20,AMC,Oldsmar,FL,AAOQA, 28.04829, -82.69405,1
AMC Orange Park 24,AMC,Orange Park,FL,AAEGL, 30.18823, -81.71906,1
AMC CLASSIC Palm Harbor 10,AMC,Palm Harbor,FL,AAFPB, 28.11656, -82.74108,1
AMC Pembroke Lakes 9,AMC,Pembroke Pines,FL,AAYFV, 26.01050, -80.30460,1
AMC CLASSIC Pensacola 18,AMC,Pensacola,FL,AAPNB, 30.48130, -87.25850,1
AMC Bayou 15,AMC,Pensacola,FL,AAUOK, 30.47290, -87.21140,1
AMC Pompano Beach 18,AMC,Pompano Beach,FL,AAIVE, 26.25980, -80.10010,1
AMC Port St. Lucie 14,AMC,Port St. Lucie,FL,AAPNC, 27.31496, -80.41165,1
AMC Lakeshore 8,AMC,Sebring,FL,AAJRD, 27.48846, -81.48594,1
AMC Sunset Place 24,AMC,South Miami,FL,AAKUB, 25.70440, -80.28646,1
AMC Sundial 12,AMC,St. Petersburg,FL,AAPCJ, 27.77480, -82.63430,1
AMC Sunrise 8,AMC,Sunrise,FL,AAXJF, 26.17798, -80.26873,1
AMC Weston 8 ,AMC,Sunrise,FL,AAXLZ, 26.10460, -80.36346,1
AMC Tallahassee 20,AMC,Tallahassee,FL,AACMO, 30.47199, -84.29156,1
AMC West Shore 14,AMC,Tampa,FL,AAPCI, 27.94545, -82.52753,1
AMC Highwoods 20,AMC,Tampa,FL,AAODQ, 28.13030, -82.36880,1
AMC Veterans 24,AMC,Tampa,FL,AANJO, 28.03641, -82.54285,1
AMC CLASSIC Indian River 24,AMC,Vero Beach,FL,AACVX, 27.63863, -80.45518,1
AMC West Melbourne 12,AMC,West Melbourne,FL,AAXHS, 28.03620, -80.66250,1
AMC Yulee 10,AMC,Yulee,FL,AAXMB, 30.62350, -81.54520,1
AMC CLASSIC Albany 16,AMC,Albany,GA,AAOGV, 31.62230, -84.20510,1
AMC DINE-IN North Point Mall 12,AMC,Alpharetta,GA,AAXBW, 34.04586, -84.29749,1
AMC Phipps Plaza 14,AMC,Atlanta,GA,AADCF, 33.85027, -84.36183,1
AMC Madison Yards 8,AMC,Atlanta,GA,AAYTA, 33.74650, -84.35790,1
AMC Camp Creek 14,AMC,Atlanta,GA,AAUQW, 33.66087, -84.51449,1
AMC Parkway Pointe 15,AMC,Atlanta,GA,AAKTP, 33.87864, -84.45661,1
AMC Bethlehem 12,AMC,Bethlehem,GA,AAWOU, 33.92720, -83.76000,1
AMC CLASSIC Riverstone 15,AMC,Canton,GA,AALZX, 34.25450, -84.46720,1
AMC CLASSIC Cartersville 12,AMC,Cartersville,GA,AAHJY, 34.17270, -84.83290,1
AMC Ritz 13,AMC,Columbus,GA,AALNY, 32.53901, -84.96850,1
AMC Columbus Park 15,AMC,Columbus,GA,AARDA, 32.54240, -84.92460,1
AMC Conyers Crossing 16,AMC,Conyers,GA,AAPGL, 33.64570, -83.99230,1
AMC Avenue Forsyth 12,AMC,Cumming,GA,AAUUQ, 34.15442, -84.17382,1
AMC CLASSIC Walnut Square 12,AMC,Dalton,GA,AAVGT, 34.76610, -84.92810,1
AMC North Dekalb 16,AMC,Decatur,GA,AADCG, 33.80587, -84.27534,1
AMC CLASSIC Battlefield 10,AMC,Fort Oglethorpe,GA,AAHJZ, 34.94920, -85.24830,1
AMC Hiram 14,AMC,Hiram,GA,AATAQ, 33.86230, -84.77650,1
AMC Barrett Commons 24,AMC,Kennesaw,GA,AANJN, 34.01563, -84.57136,1
AMC CLASSIC LaGrange 10,AMC,LaGrange,GA,AAUJP, 33.03859, -85.03130,1
AMC DINE-IN Webb Gin 11,AMC,Lawrenceville,GA,AAYAL, 33.90377, -84.00423,1
AMC Sugarloaf Mills 18,AMC,Lawrenceville,GA,AAREL, 33.97895, -84.07852,1
AMC Colonial 18,AMC,Lawrenceville,GA,AADCI, 33.96570, -84.02395,1
AMC CLASSIC Milledgeville 6,AMC,Milledgeville,GA,AAHIG, 33.10900, -83.25510,1
AMC Southlake 24,AMC,Morrow,GA,AAEGN, 33.56448, -84.32595,1
AMC CLASSIC Savannah 11,AMC,Savannah,GA,AAJQX, 31.98560, -81.17210,1
AMC Statesboro 12,AMC,Statesboro,GA,AAJRZ, 32.43530, -81.76980,1
AMC Council Bluffs 17,AMC,Council Bluffs,IA,AAQWH, 41.24240, -95.89566,1
AMC CLASSIC Dubuque 14,AMC,Dubuque,IA,AAUIE, 42.51010, -90.75900,1
AMC Southern Hills 12,AMC,Sioux City,IA,AAJRN, 42.44790, -96.34840,1
AMC CLASSIC Pine Ridge 11,AMC,Chubbuck,ID,AATQF, 42.91160,-112.46640,1
AMC University Place 8,AMC,Carbondale,IL,AABWT, 37.73480, -89.18720,1
AMC Champaign 13,AMC,Champaign,IL,AAWZT, 40.14767, -88.25957,1
AMC Ford City 14,AMC,Chicago,IL,AABZF, 41.75483, -87.74163,1
AMC DINE-IN 600 North Michigan 9,AMC,Chicago,IL,AABZU, 41.89260, -87.62450,1
AMC NEWCITY 14,AMC,Chicago,IL,AAXRO, 41.90860, -87.64880,1
AMC River East 21,AMC,Chicago,IL,AAQOW, 41.89105, -87.62008,1
AMC Roosevelt Collection 16,AMC,Chicago,IL,AAVNK, 41.86960, -87.63240,1
AMC Galewood Crossings 14,AMC,Chicago,IL,AAUMP, 41.91559, -87.76473,1
AMC DINE-IN Block 37 ,AMC,Chicago,IL,AAXSJ, 41.88324, -87.63004,1
AMC Chicago Ridge 6,AMC,Chicago Ridge,IL,AAARQ, 41.71560, -87.78440,1
AMC Cicero 14,AMC,Cicero,IL,AAUCG, 41.85110, -87.74390,1
AMC Crestwood 18,AMC,Crestwood,IL,AAAXL, 41.65080, -87.74470,1
AMC Decatur 10,AMC,Decatur,IL,AALQG, 39.81330, -88.87780,1
AMC Market Square 10,AMC,Dekalb,IL,AALQK, 41.94890, -88.72920,1
AMC Edwardsville 12,AMC,Edwardsville,IL,AAILM, 38.78140, -89.95500,1
AMC Evanston 12,AMC,Evanston,IL,AAOZM, 42.04900, -87.68430,1
AMC CLASSIC Galesburg 8,AMC,Galesburg,IL,AARDW, 40.96900, -90.39320,1
AMC Quarry Cinemas 14,AMC,Hodgkins,IL,AAETA, 41.77572, -87.85892,1
AMC Lake In The Hills 12,AMC,Lake In The Hills,IL,AAHVB, 42.18024, -88.33524,1
AMC DINE-IN Yorktown 18,AMC,Lombard,IL,AABZG, 41.83541, -88.01080,1
AMC Machesney Park 14,AMC,Machesney Park,IL,AATIK, 42.37119, -89.00459,1
AMC CLASSIC Illinois Centre 8,AMC,Marion,IL,AAJEM, 37.74965, -88.97585,1
AMC CLASSIC Mattoon 10,AMC,Mattoon,IL,AAJEN, 39.48183, -88.30591,1
AMC CLASSIC Morris 10,AMC,Morris,IL,AALRF, 41.38620, -88.43180,1
AMC Randhurst 12,AMC,Mt Prospect,IL,AAWIS, 42.08576, -87.93132,1
AMC CLASSIC Mount Vernon 8,AMC,Mt. Vernon,IL,AAJEO, 38.32070, -88.90600,1
AMC Naperville 16,AMC,Naperville,IL,AATWV, 41.71295, -88.20885,1
AMC New Lenox 14,AMC,New Lenox,IL,AARMO, 41.50520, -87.96090,1
AMC Niles 12,AMC,Niles,IL,AAUCI, 42.04748, -87.83318,1
AMC CLASSIC Normal 14,AMC,Normal,IL,AAVFG, 40.51590, -88.98020,1
AMC Norridge 6,AMC,Norridge,IL,AAAXU, 41.95755, -87.80783,1
AMC DINE-IN Northbrook Court 14,AMC,Northbrook,IL,AACQS, 42.14967, -87.81680,1
AMC Oakbrook Center 12,AMC,Oak Brook,IL,AAXZC, 41.84764, -87.95218,1
AMC Oakbrook Center 4,AMC,Oak Brook,IL,AAXOI, 41.84770, -87.95550,1
AMC Pekin 14,AMC,Pekin,IL,AAOEK, 40.60250, -89.63100,1
AMC Grand Prairie 18,AMC,Peoria,IL,AATPR, 40.78060, -89.67580,1
AMC Peru Mall 8,AMC,Peru,IL,AALRZ, 41.50410, -89.12720,1
AMC CLASSIC Quincy 6,AMC,Quincy,IL,AAJDJ, 39.93330, -91.36280,1
AMC Rockford 16,AMC,Rockford,IL,AAJDQ, 42.27240, -88.95410,1
AMC DINE-IN Rosemont 12,AMC,Rosemont,IL,AAUPJ, 41.98040, -87.86730,1
AMC Loews Streets Of Woodfield 20,AMC,Schaumburg,IL,AAOGC, 42.03800, -88.03520,1
AMC Village Crossing 18,AMC,Skokie,IL,AAPLI, 42.00840, -87.76170,1
AMC South Barrington 24,AMC,South Barrington,IL,AADQG, 42.07180, -88.14740,1
AMC Springfield 12,AMC,Springfield,IL,AARCD, 39.75940, -89.72440,1
AMC Showplace Springfield 8,AMC,Springfield,IL,AAJDZ, 39.76380, -89.60750,1
AMC CLASSIC Sauk Valley 8,AMC,Sterling,IL,AALSE, 41.84380, -89.65930,1
AMC Hawthorn 12,AMC,Vernon Hills,IL,AAXOA, 42.24408, -87.94933,1
AMC CLASSIC Sunnyland 10,AMC,Washington,IL,AAJGO, 40.69600, -89.47400,1
AMC CLASSIC Bloomington 12,AMC,Bloomington,IN,AAOSS, 39.16440, -86.57070,1
AMC CLASSIC Columbus 12,AMC,Columbus,IN,AAPDE, 39.20220, -85.88540,1
AMC CLASSIC Crawfordsville 8,AMC,Crawfordsville,IN,AANWC, 40.02220, -86.89690,1
AMC Evansville 16,AMC,Evansville,IN,AANFL, 37.97294, -87.64362,1
AMC Jefferson Point 18,AMC,Fort Wayne,IN,AAQMM, 41.07010, -85.19520,1
AMC Washington Square 12,AMC,Indianapolis,IN,AATIJ, 39.77520, -85.98560,1
AMC Castleton Square 14,AMC,Indianapolis,IN,AAUSC, 39.90556, -86.06399,1
AMC Indianapolis 17,AMC,Indianapolis,IN,AANFK, 39.70250, -86.15800,1
AMC Traders Point 12,AMC,Indianapolis,IN,AATAS, 39.91081, -86.26353,1
AMC CLASSIC Kokomo 12,AMC,Kokomo,IN,AATWY, 40.46250, -86.11320,1
AMC CLASSIC Marion 12,AMC,Marion,IN,AAODA, 40.57370, -85.68310,1
AMC CLASSIC Hobart 12,AMC,Merrillville,IN,AATWU, 41.46842, -87.31455,1
AMC CLASSIC Michigan City 14,AMC,Michigan City,IN,AATIL, 41.67610, -86.89380,1
AMC Showplace Muncie 12,AMC,Muncie,IN,AATIM, 40.22446, -85.37530,1
AMC Perry Crossing 18,AMC,Plainfield,IN,AATVG, 39.71101, -86.36058,1
AMC CLASSIC Richmond 11,AMC,Richmond,IN,AAJFD, 39.83100, -84.83642,1
AMC Schererville 16,AMC,Schererville,IN,AAISC, 41.50040, -87.47550,1
AMC Schererville 12,AMC,Schererville,IN,AARMN, 41.49060, -87.46180,1
AMC CLASSIC South Bend 16,AMC,South Bend,IN,AAJFA, 41.62440, -86.24550,1
AMC CLASSIC Terre Haute 12,AMC,Terre Haute,IN,AAOUE, 39.42650, -87.41590,1
AMC CLASSIC Vincennes 8,AMC,Vincennes,IN,AAQZL, 38.67240, -87.51790,1
AMC Legends 14,AMC,Kansas City,KS,AAUOW, 39.12560, -94.82930,1
AMC Town Center 20,AMC,Leawood,KS,AAECO, 38.91640, -94.64890,1
AMC DINE-IN Manhattan 13,AMC,Manhattan,KS,AAYAP, 39.17938, -96.57664,1
AMC DINE-IN Studio 28,AMC,Olathe,KS,AAECQ, 38.90731, -94.77259,1
AMC DINE-IN Prairiefire 17,AMC,Overland Park,KS,AAXGG, 38.88531, -94.65310,1
AMC CLASSIC Pittsburg 8,AMC,Pittsburg,KS,AANHR, 37.38160, -94.70350,1
AMC CLASSIC Salina 10,AMC,Salina,KS,AAJHB, 38.80230, -97.61270,1
AMC Northrock 14,AMC,Wichita,KS,AAJHA, 37.74046, -97.24090,1
AMC Stonybrook 20,AMC,Louisville,KY,AAXBA, 38.21060, -85.59617,1
AMC Newport On The Levee 20,AMC,Newport,KY,AAQBB, 39.09369, -84.49418,1
AMC Baton Rouge 16,AMC,Baton Rouge,LA,AAWWN, 30.44005, -91.01382,1
AMC Mall of Louisiana 15,AMC,Baton Rouge,LA,AAWWO, 30.38582, -91.08423,1
AMC Hammond Palace 10,AMC,Hammond,LA,AAQIS, 30.48149, -90.46690,1
AMC Elmwood Palace 20,AMC,Harahan,LA,AAQIP, 29.96255, -90.18926,1
AMC Westbank Palace 16,AMC,Harvey,LA,AAQIQ, 29.89762, -90.06264,1
AMC Houma Palace 10,AMC,Houma,LA,AAQIT, 29.63853, -90.75958,1
AMC DINE-IN Clearview Palace 12,AMC,Metairie,LA,AAQIR, 30.00472, -90.18279,1
AMC Boston Common 19,AMC,Boston,MA,AAPNV, 42.35350, -71.06430,1
AMC Causeway 13,AMC,Boston,MA,AAYQS, 42.36450, -71.06320,1
AMC Braintree 10,AMC,Braintree,MA,AADSF, 42.21957, -71.03266,1
AMC Burlington Cinema 10,AMC,Burlington,MA,AADSG, 42.48063, -71.21844,1
AMC Loews Liberty Tree Mall 20,AMC,Danvers,MA,AABBK, 42.55090, -70.93710,1
AMC South Bay Center 12,AMC,Dorchester,MA,AAYHQ, 42.32525, -71.06274,1
AMC DINE-IN Framingham 16,AMC,Framingham,MA,AADSI, 42.30117, -71.39127,1
AMC Methuen 20,AMC,Methuen,MA,AAOZE, 42.74240, -71.15580,1
AMC Dartmouth Mall 11,AMC,North Dartmouth,MA,AAEXH, 41.64063, -70.99462,1
AMC Assembly Row 12,AMC,Somerville,MA,AAXFU, 42.39500, -71.07950,1
AMC Tyngsboro 12,AMC,Tyngsboro,MA,AADXS, 42.69669, -71.44358,1
AMC Annapolis Mall 11,AMC,Annapolis,MD,AADTY, 38.98860, -76.54740,1
AMC Security Square 8,AMC,Baltimore,MD,AADVK, 39.30810, -76.75066,1
AMC Loews White Marsh 16,AMC,Baltimore,MD,AAETE, 39.37170, -76.46630,1
AMC Center Park 8,AMC,Beltsville,MD,AABOX, 39.04630, -76.93860,1
AMC Montgomery 16 ,AMC,Bethesda,MD,AAXJH, 39.02440, -77.14700,1
AMC Columbia 14,AMC,Columbia,MD,AAREM, 39.21736, -76.86341,1
AMC DINE-IN Rio Cinemas 18,AMC,Gaithersburg,MD,AABXD, 39.11520, -77.19790,1
AMC Academy 8,AMC,Greenbelt,MD,AAXYW, 39.00000, -76.91000,1
AMC Magic Johnson Capital Center 12,AMC,Largo,MD,AASWP, 38.90070, -76.84700,1
AMC Owings Mills 17,AMC,Owings Mills,MD,AALHH, 39.40676, -76.79343,1
AMC Rivertowne 12,AMC,Oxon Hill,MD,AAXOB, 38.80639, -76.98042,1
AMC St. Charles Town Ctr. 9,AMC,Waldorf,MD,AABXK, 38.62000, -76.92680,1
AMC Wheaton Mall 9,AMC,Wheaton,MD,AAXYX, 39.03550, -77.05200,1
AMC Star Great Lakes 25,AMC,Auburn Hills,MI,AAMOP, 42.70260, -83.30640,1
AMC Star Gratiot 15,AMC,Clinton Township,MI,AACVI, 42.55980, -82.89740,1
AMC Birchwood 10,AMC,Fort Gratiot,MI,AAJHT, 43.01990, -82.45550,1
AMC Star Holland 8,AMC,Holland,MI,AACVH, 42.81190, -86.08520,1
AMC Livonia 20,AMC,Livonia,MI,AAIYE, 42.42759, -83.43296,1
AMC CLASSIC Ludington 8,AMC,Ludington,MI,AASXH, 43.95590, -86.36920,1
AMC Star John R 15,AMC,Madison Heights,MI,AACVG, 42.52939, -83.10677,1
AMC Forum 30,AMC,Sterling Heights,MI,AANXR, 42.62169, -83.05135,1
AMC Cherry Blossom 14,AMC,Traverse City,MI,AAXSI, 44.73214, -85.65163,1
AMC Grand Rapids 18,AMC,Walker,MI,AACVJ, 43.01980, -85.68880,1
AMC Coon Rapids 16,AMC,Coon Rapids,MN,AAIVB, 45.15240, -93.27760,1
AMC Eden Prairie Mall 18,AMC,Eden Prairie,MN,AAQIU, 44.85300, -93.43000,1
AMC Southdale 16,AMC,Edina,MN,AAQCX, 44.88309, -93.32691,1
AMC Inver Grove 16,AMC,Inver Grove Heights,MN,AAIVD, 44.86380, -93.05480,1
AMC CLASSIC Mounds View 15,AMC,Mounds View,MN,AANCP, 45.10180, -93.20880,1
AMC Rosedale 14,AMC,Roseville,MN,AAUFJ, 45.01290, -93.16876,1
AMC Creve Coeur 12,AMC,Creve Coeur,MO,AANQO, 38.67325, -90.40961,1
AMC CLASSIC Farmington 4,AMC,Farmington,MO,AAJDE, 37.79244, -90.44105,1
AMC Independence Commons 20,AMC,Independence,MO,AABNS, 39.04795, -94.34935,1
AMC Ward Parkway 14,AMC,Kansas City,MO,AAAZR, 38.97206, -94.60557,1
AMC Barrywoods 24,AMC,Kansas City,MO,AAECP, 39.24254, -94.65739,1
AMC CLASSIC Poplar Bluff 8,AMC,Poplar Bluff,MO,AAJDG, 36.73190, -90.44190,1
AMC Streets of St. Charles 8,AMC,Saint Charles,MO,AAXJV, 38.76627, -90.49394,1
AMC Springfield 11,AMC,Springfield,MO,AANHQ, 37.15597, -93.23048,1
AMC Esquire 7,AMC,St. Louis,MO,AABAB, 38.63429, -90.31618,1
AMC CLASSIC Billings 10,AMC,Billings,MT,AANFO, 45.76970,-108.57770,1
AMC Shiloh 14,AMC,Billings,MT,AAVLK, 45.75167,-108.61430,1
AMC CLASSIC Great Falls 10,AMC,Great Falls,MT,AAKAY, 47.48220,-111.34190,1
AMC DINE-IN Southgate 9,AMC,Missoula,MT,AAYHP, 46.87872,-113.99660,1
AMC Missoula 12,AMC,Missoula,MT,AAKIH, 46.88580,-114.04440,1
AMC River Hills 10,AMC,Asheville,NC,AALSC, 35.57660, -82.52480,1
AMC Northlake 14,AMC,Charlotte,NC,AATVT, 35.34842, -80.84720,1
AMC Park Terrace 6,AMC,Charlotte,NC,AAGJO, 35.17200, -80.84990,1
AMC Carolina Pavilion 22,AMC,Charlotte,NC,AACCA, 35.10696, -80.87678,1
AMC Concord Mills 24,AMC,Concord,NC,AANQM, 35.36988, -80.71832,1
AMC Southpoint 17,AMC,Durham,NC,AAWWX, 35.90540, -78.94507,1
AMC Market Fair 15,AMC,Fayetteville,NC,AAPDH, 35.06860, -78.96660,1
AMC Fayetteville 14,AMC,Fayetteville,NC,AAXKG, 35.08404, -78.96731,1
AMC Fire Tower 12,AMC,Greenville,NC,AAKBJ, 35.59370, -77.34010,1
AMC CLASSIC Havelock 6,AMC,Havelock,NC,AAKCK, 34.85530, -76.89480,1
AMC Hickory 15,AMC,Hickory,NC,AALSA, 35.69959, -81.30433,1
AMC High Point 8,AMC,High Point,NC,AAHZO, 35.99300, -80.03060,1
AMC DINE-IN Holly Springs 9,AMC,Holly Springs,NC,AAXYP, 35.66295, -78.84750,1
AMC CLASSIC Jacksonville 16,AMC,Jacksonville,NC,AARAV, 34.76660, -77.38390,1
AMC Kalli 12,AMC,Jacksonville,NC,AAWWF, 34.79810, -77.41740,1
AMC Park Place 16,AMC,Morrisville,NC,AAGUQ, 35.80412, -78.80911,1
AMC CLASSIC Shelby 10,AMC,Shelby,NC,AAJRK, 35.26966, -81.48294,1
AMC CLASSIC Wilson 10,AMC,Wilson,NC,AAJSS, 35.72190, -77.93690,1
AMC Hanes 12,AMC,Winston Salem,NC,AAJSU, 36.06830, -80.33630,1
AMC Dakota Square 9,AMC,Minot,ND,AAKIF, 48.20625,-101.30650,1
AMC Westroads 14,AMC,Omaha,NE,AAWWT, 41.26547, -96.06749,1
AMC Brick Plaza 10,AMC,Brick Township,NJ,AADYI, 40.05630, -74.14590,1
AMC DINE-IN Bridgewater 7,AMC,Bridgewater,NJ,AAFMR, 40.58644, -74.61607,1
AMC Cherry Hill 24,AMC,Cherry Hill,NJ,AAKTM, 39.93850, -75.02630,1
AMC Clifton Commons 16,AMC,Clifton,NJ,AANKM, 40.82769, -74.13879,1
AMC Deptford 8,AMC,Deptford,NJ,AACZO, 39.83395, -75.09878,1
AMC Brunswick Square 13,AMC,East Brunswick,NJ,AAHRP, 40.42710, -74.38250,1
AMC Loews East Hanover 12,AMC,East Hanover,NJ,AABPL, 40.81080, -74.38510,1
AMC Monmouth Mall 15,AMC,Eatontown,NJ,AABPS, 40.29150, -74.05100,1
AMC DINE-IN Menlo Park 12,AMC,Edison,NJ,AABTZ, 40.54543, -74.33607,1
AMC Jersey Gardens 20,AMC,Elizabeth,NJ,AAPYT, 40.66280, -74.17440,1
AMC Freehold 14,AMC,Freehold,NJ,AABPR, 40.25040, -74.29150,1
AMC DINE-IN Shops at Riverside 9,AMC,Hackensack,NJ,AAYFU, 40.90770, -74.03090,1
AMC Newport Centre 11,AMC,Jersey City,NJ,AABUC, 40.72630, -74.03860,1
AMC Aviation 12,AMC,Linden,NJ,AAUNV, 40.62159, -74.24531,1
AMC Marlton 8,AMC,Marlton,NJ,AACZQ, 39.90519, -74.93736,1
AMC Headquarters 10,AMC,Morristown,NJ,AAXCE, 40.80010, -74.48160,1
AMC Mountainside 10,AMC,Mountainside,NJ,AAAUG, 40.68390, -74.33690,1
AMC New Brunswick 18,AMC,New Brunswick,NJ,AACPH, 40.48830, -74.41450,1
AMC Garden State 16,AMC,Paramus,NJ,AAUJG, 40.91547, -74.07699,1
AMC MarketFair 10,AMC,Princeton,NJ,AAXQS, 40.35620, -74.65020,1
AMC Ridgefield Park 12,AMC,Ridgefield Park,NJ,AAXBO, 40.85063, -74.01300,1
AMC Rockaway 16,AMC,Rockaway,NJ,AAUFG, 40.90753, -74.54704,1
AMC Voorhees 16,AMC,Voorhees,NJ,AAXBB, 39.85126, -74.97967,1
AMC Wayne 14,AMC,Wayne,NJ,AABPJ, 40.88850, -74.25090,1
AMC DINE-IN Essex Green 9,AMC,West Orange,NJ,AAFMU, 40.78931, -74.25538,1
AMC Albuquerque 12,AMC,Albuquerque,NM,AAXSH, 35.02353,-106.71470,1
AMC Rainbow Promenade 10,AMC,Las Vegas,NV,AADGS, 36.20230,-115.24140,1
AMC Town Square 18,AMC,Las Vegas,NV,AAWWV, 36.06837,-115.17870,1
AMC Maple Ridge 8,AMC,Amherst,NY,AACZV, 42.99079, -78.80497,1
AMC Bay Plaza Cinema 13,AMC,Bronx,NY,AAEEV, 40.86935, -73.82880,1
AMC Market Arcade 8,AMC,Buffalo,NY,AANSP, 42.89117, -78.87198,1
AMC DINE-IN Huntington Square 12,AMC,East Northport,NY,AAYRZ, 40.83900, -73.31530,1
AMC Roosevelt Field 8,AMC,Garden City,NY,AABQP, 40.73970, -73.61490,1
AMC Glen Cove 6,AMC,Glen Cove,NY,AABTO, 40.86620, -73.63103,1
AMC Shore 8,AMC,Huntington,NY,AABTU, 40.87292, -73.42783,1
AMC DINE-IN Levittown 10,AMC,Levittown,NY,AABQM, 40.72571, -73.50426,1
AMC Crystal Run 16,AMC,Middletown,NY,AABRA, 41.45250, -74.36800,1
AMC Kips Bay 15,AMC,New York,NY,AANCL, 40.74340, -73.97670,1
AMC Village 7,AMC,New York,NY,AABQF, 40.73150, -73.98870,1
AMC 19th St. East 6,AMC,New York,NY,AABQG, 40.73860, -73.98969,1
AMC Orpheum 7,AMC,New York,NY,AABQC, 40.77940, -73.95406,1
AMC Empire 25,AMC,New York,NY,AAORE, 40.75638, -73.98804,1
AMC Lincoln Square 13,AMC,New York,NY,AABQI, 40.77518, -73.98171,1
AMC 34th Street 14,AMC,New York,NY,AAQCR, 40.75236, -73.99463,1
AMC Magic Johnson Harlem 9,AMC,New York,NY,AAOVP, 40.80956, -73.95166,1
AMC 84th Street 6,AMC,New York,NY,AABQA, 40.78660, -73.97760,1
AMC Allegany 8,AMC,Olean,NY,AAKLR, 42.07990, -78.46680,1
AMC Port Chester 14,AMC,Port Chester,NY,AASWQ, 40.99970, -73.66150,1
AMC Loews Fresh Meadows 7,AMC,Queens,NY,AABTM, 40.74100, -73.78450,1
AMC Loews Bay Terrace 6,AMC,Queens,NY,AABQJ, 40.77945, -73.77885,1
AMC Fantasy 5,AMC,Rockville Centre,NY,AABTN, 40.65670, -73.64540,1
AMC Saratoga Springs 11,AMC,Saratoga Springs,NY,AAXCI, 43.08230, -73.78810,1
AMC DINE-IN Staten Island Mall 11,AMC,Staten Island,NY,AAYMZ, 40.58120, -74.16480,1
AMC Loews Stony Brook 17,AMC,Stony Brook,NY,AALAT, 40.87180, -73.12590,1
AMC Vestal Towne Square 9,AMC,Vestal,NY,AABRJ, 42.09480, -76.01000,1
AMC Webster 12,AMC,Webster,NY,AABRE, 43.20110, -77.49740,1
AMC Palisades Center 21,AMC,West Nyack,NY,AAFPI, 41.09884, -73.95368,1
AMC Raceway 10,AMC,Westbury,NY,AABSX, 40.74227, -73.59644,1
AMC DINE-IN Anderson Towne Center 9,AMC,Anderson Township,OH,AAYAQ, 39.07285, -84.34969,1
AMC Ridge Park Square 8,AMC,Brooklyn,OH,AAFND, 41.42714, -81.73454,1
AMC Starplex Columbus 10,AMC,Columbus,OH,AAGLH, 39.98197, -83.14728,1
AMC Dine-in Easton Town Center 30,AMC,Columbus,OH,AANIT, 40.04987, -82.91549,1
AMC Dublin Village 18,AMC,Dublin,OH,AABYG, 40.10550, -83.09700,1
AMC CLASSIC Findlay 12,AMC,Findlay,OH,AATUC, 41.06240, -83.66880,1
AMC Grove City 14,AMC,Grove City,OH,AAWWS, 39.86340, -83.05240,1
AMC CLASSIC Hamilton 8,AMC,Hamilton,OH,AAEEM, 39.42401, -84.59449,1
AMC Indian Mound 9,AMC,Heath,OH,AAKLG, 40.03157, -82.44956,1
AMC Westwood Town Center 6,AMC,Rocky River,OH,AAFNM, 41.45967, -81.85977,1
AMC West Chester 18,AMC,West Chester,OH,AAWWU, 39.31868, -84.42082,1
AMC CLASSIC Ardmore 8,AMC,Ardmore,OK,AAVDR, 34.18740, -97.15940,1
AMC Patriot 13,AMC,Lawton,OK,AAXRZ, 34.63569, -98.47680,1
AMC Robinson Crossing 6,AMC,Norman,OK,AAYRD, 35.23510, -97.48760,1
AMC Penn Square 10,AMC,Oklahoma City,OK,AAWVC, 35.52484, -97.54442,1
AMC Quail Springs Mall 24,AMC,Oklahoma City,OK,AAKTW, 35.61241, -97.56046,1
AMC CLASSIC Owasso 12,AMC,Owasso,OK,AAOVI, 36.27860, -95.83500,1
Cinema Centre 8,AMC,Shawnee,OK,AAPHW, 35.36510, -96.91170,1
AMC Stillwater 10,AMC,Stillwater,OK,AAJSH, 36.14150, -97.05130,1
AMC Southroads 20,AMC,Tulsa,OK,AAEKU, 36.10642, -95.91926,1
AMC Tulsa Hills 12,AMC,Tulsa,OK,AAXTY, 36.04249, -96.00733,1
AMC West End Pointe 8,AMC,Yukon,OK,AAUOL, 35.47890, -97.75560,1
AMC Progress Ridge 13,AMC,Beaverton,OR,AAWJT, 45.43095,-122.83100,1
AMC CLASSIC Corvallis 12,AMC,Corvallis,OR,AASVC, 44.58880,-123.24950,1
AMC Tilghman Square 8,AMC,Allentown,PA,AABEH, 40.58700, -75.55800,1
AMC Woodhaven 10,AMC,Bensalem,PA,AACZX, 40.07227, -74.96358,1
AMC Neshaminy 24,AMC,Bensalem,PA,AAIVO, 40.13960, -74.96130,1
AMC CLASSIC Bloomsburg 11,AMC,Bloomsburg,PA,AAJXS, 41.00820, -76.42310,1
AMC Camp Hill 12,AMC,Camp Hill,PA,AABMI, 40.22670, -76.93640,1
AMC Center Valley 16,AMC,Center Valley,PA,AAUHQ, 40.56054, -75.40915,1
AMC Altoona 12,AMC,Duncansville,PA,AAXRA, 40.45221, -78.40828,1
AMC Westmoreland 15,AMC,Greensburg,PA,AANRE, 40.29746, -79.50506,1
AMC Waterfront 22,AMC,Homestead,PA,AAOSA, 40.40890, -79.91700,1
AMC CLASSIC Hampden 8,AMC,Mechanicsburg,PA,AAVRM, 40.23720, -76.96890,1
AMC CLASSIC Mount Lebanon 6,AMC,Mt. Lebanon,PA,AAEBA, 40.35778, -80.05036,1
AMC 309 Cinema 9 ,AMC,North Wales,PA,AADAG, 40.20710, -75.22540,1
AMC DINE-IN Fashion District 8,AMC,Philadelphia,PA,AAYRP, 39.95201, -75.15724,1
AMC Broadstreet 7,AMC,Philidelphia,PA,AAXYF, 39.97797, -75.16064,1
AMC CLASSIC South Hills Village 10,AMC,Pittsburgh,PA,AALGM, 40.34540, -80.05760,1
AMC Plymouth Meeting Mall 12,AMC,Plymouth Meeting,PA,AALBH, 40.11351, -75.27989,1
AMC Pottsgrove 12,AMC,Pottsgrove,PA,AAWOC, 40.26836, -75.65809,1
AMC Fairgrounds 10,AMC,Reading,PA,AALWB, 40.36440, -75.92730,1
AMC CLASSIC Selinsgrove 12,AMC,Selinsgrove,PA,AATNY, 40.81460, -76.85730,1
AMC Marple 10,AMC,Springfield,PA,AADAF, 39.93902, -75.35458,1
AMC DINE-IN Painters Crossing 9,AMC,West Chester,PA,AADAI, 39.88285, -75.55038,1
AMC CLASSIC Williamsport 11,AMC,Williamsport,PA,AAWYT, 41.24010, -77.00660,1
AMC DINE-IN Berkshire 8,AMC,Wyomissing,PA,AAWVX, 40.34970, -75.96700,1
AMC Harbison 14,AMC,Columbia,SC,AALXF, 34.07550, -81.15960,1
AMC CLASSIC Myrtle Beach 12,AMC,Myrtle Beach,SC,AAUDW, 33.79090, -78.76340,1
AMC CLASSIC Rapid City 10,AMC,Rapid City,SD,AANFQ, 44.10310,-103.21800,1
AMC Antioch 8,AMC,Antioch,TN,AAGOV, 36.04970, -86.64990,1
AMC Majestic 12,AMC,Chattanooga,TN,AAVRR, 35.05320, -85.31080,1
AMC Chattanooga 18,AMC,Chattanooga,TN,AATZD, 35.00530, -85.22980,1
AMC Bradley Square 12,AMC,Cleveland,TN,AAWVY, 35.20635, -84.84787,1
AMC Highland 12,AMC,Cookeville,TN,AAURF, 36.13150, -85.50440,1
AMC DINE-IN Thoroughbred 20,AMC,Franklin,TN,AAOFP, 35.94310, -86.82394,1
AMC CLASSIC Towne Crossing 8,AMC,Greeneville,TN,AAWWH, 36.17380, -82.83670,1
AMC Northgate 14,AMC,Hixson,TN,AATSW, 35.16340, -85.21800,1
AMC Johnson City 14,AMC,Johnson City,TN,AALYK, 36.33400, -82.37220,1
AMC Foothills 12,AMC,Maryville,TN,AAWOV, 35.73729, -83.99450,1
AMC CLASSIC College Square 12,AMC,Morristown,TN,AAVDS, 36.22236, -83.26146,1
AMC CLASSIC Murfreesboro 16,AMC,Murfreesboro,TN,AANZF, 35.84329, -86.43822,1
AMC Stones River 9,AMC,Murfreesboro,TN,AAYKD, 35.84640, -86.41610,1
AMC Bellevue 12,AMC,Nashville,TN,AAYFT, 36.08450, -86.94370,1
AMC Spring Hill 12,AMC,Spring Hill,TN,AAXPL, 35.74228, -86.93991,1
AMC Village on the Parkway 9,AMC,Addison,TX,AAXJU, 32.95390, -96.82060,1
AMC The Parks At Arlington 18,AMC,Arlington,TX,AAQPE, 32.68301, -97.13303,1
AMC Barton Creek Square 14,AMC,Austin,TX,AANCC, 30.25769, -97.80766,1
AMC DINE-IN Tech Ridge 10,AMC,Austin,TX,AAYSF, 30.40861, -97.67171,1
AMC Boerne 11,AMC,Boerne,TX,AAWXE, 29.76060, -98.70780,1
AMC Burleson 14,AMC,Burleson,TX,AAXZD, 32.57638, -97.32432,1
AMC Lakeline 9,AMC,Cedar Park,TX,AABNG, 30.47174, -97.80222,1
AMC CLASSIC Corpus Christi 16,AMC,Corpus Christi,TX,AAUHH, 27.73920, -97.43980,1
AMC NorthPark 15,AMC,Dallas,TX,AATZH, 32.86927, -96.77356,1
AMC Edinburg 18,AMC,Edinburg,TX,AAOGT, 26.27269, -98.15568,1
AMC El Paso 16,AMC,El Paso,TX,AANOV, 31.88350,-106.44000,1
AMC CLASSIC Forney 12,AMC,Forney,TX,AATRP, 32.74390, -96.45110,1
AMC Palace 9,AMC,Fort Worth,TX,AADCS, 32.75547, -97.33018,1
AMC Lake Worth 14,AMC,Fort Worth,TX,AAWEV, 32.80360, -97.42840,1
AMC DINE-IN Clearfork 8,AMC,Fort Worth,TX,AAYJV, 32.70851, -97.40123,1
AMC Hulen 10,AMC,Fort Worth,TX,AAUGX, 32.65960, -97.40410,1
AMC Eastchase 9,AMC,Fort Worth,TX,AAWWG, 32.75697, -97.17117,1
AMC DINE-IN Stonebriar 24,AMC,Frisco,TX,AAOXJ, 33.10541, -96.80568,1
AMC Firewheel 18,AMC,Garland,TX,AATVS, 32.95090, -96.61356,1
AMC Grapevine Mills 24,AMC,Grapevine,TX,AAEGO, 32.95085, -97.04011,1
AMC Highland Village 12,AMC,Highland Village,TX,AAUSF, 33.07387, -97.08507,1
AMC Gulf Pointe 30,AMC,Houston,TX,AAEPA, 29.60644, -95.20506,1
AMC Willowbrook 24,AMC,Houston,TX,AAODO, 29.95554, -95.54220,1
AMC Houston 8,AMC,Houston,TX,AAWNL, 29.76240, -95.36660,1
AMC Deerbrook 24,AMC,Humble,TX,AACBH, 30.00535, -95.26831,1
AMC Irving Mall 14,AMC,Irving,TX,AACRP, 32.83909, -96.99606,1
AMC Katy Mills 20,AMC,Katy,TX,AANRV, 29.76788, -95.81922,1
AMC CLASSIC Brazos Mall 14,AMC,Lake Jackson,TX,AAEOW, 29.04200, -95.44340,1
AMC Longview 10,AMC,Longview,TX,AAKGK, 32.53802, -94.74741,1
AMC Lufkin 9,AMC,Lufkin,TX,AAKGM, 31.33810, -94.72890,1
AMC DINE-IN Mesquite 30,AMC,Mesquite,TX,AAFLE, 32.78225, -96.62508,1
AMC CLASSIC Rio Grande 10,AMC,Rio Grande City,TX,AAUWB, 26.36860, -98.78190,1
AMC Rivercenter 11 with Alamo IMAX,AMC,San Antonio,TX,AADCX, 29.42362, -98.48536,1
AMC Metropark 10,AMC,Shenandoah,TX,AAYOF, 30.18022, -95.45577,1
AMC Spring 10,AMC,Spring,TX,AABNC, 30.06080, -95.43920,1
AMC Loews Fountains 18,AMC,Stafford,TX,AACXA, 29.63920, -95.58780,1
AMC First Colony 24,AMC,Sugar Land,TX,AAEPB, 29.58780, -95.62703,1
AMC Tyler 14,AMC,Tyler,TX,AATLA, 32.26900, -95.30700,1
AMC Galaxy 16,AMC,Waco,TX,AAFJQ, 31.52720, -97.16020,1
AMC Sikes Senter 10,AMC,Wichita Falls,TX,AAJSO, 33.87030, -98.53240,1
AMC Loews Layton Hills 9,AMC,Layton,UT,AAEIT, 41.08080,-111.97900,1
AMC Provo 8,AMC,Provo,UT,AAIDZ, 40.29900,-111.65680,1
AMC West Jordan 12,AMC,West Jordan,UT,AAXOY, 40.58473,-111.93580,1
AMC Hoffman Center 22,AMC,Alexandria,VA,AAPNJ, 38.80230, -77.07056,1
AMC Courthouse Plaza 8,AMC,Arlington,VA,AADAK, 38.89011, -77.08702,1
AMC Shirlington 7,AMC,Arlington,VA,AABXO, 38.84110, -77.08900,1
AMC Loudoun Station 11,AMC,Ashburn,VA,AAXOE, 39.00640, -77.48770,1
AMC Hampton Towne Centre 24,AMC,Hampton,VA,AAFSR, 37.06192, -76.42698,1
AMC Worldgate 9,AMC,Herndon,VA,AAWZK, 38.95743, -77.40114,1
AMC Tysons Corner 16,AMC,McLean,VA,AATSO, 38.91990, -77.22380,1
AMC DINE-IN Midlothian 10,AMC,Midlothian,VA,AAXMD, 37.50630, -77.61780,1
AMC CLASSIC Roanoke 10,AMC,Roanoke,VA,AAJQM, 37.23100, -79.97440,1
AMC CLASSIC Salem Valley 8,AMC,Salem,VA,AALZO, 37.27040, -80.03310,1
AMC Lynnhaven 18,AMC,Virginia Beach,VA,AADAQ, 36.81588, -76.07275,1
AMC Apple Blossom 12,AMC,Winchester,VA,AAWZS, 39.16330, -78.16310,1
AMC Potomac Mills 18,AMC,Woodbridge,VA,AADAR, 38.64464, -77.29037,1
AMC Loews Factoria 8,AMC,Bellevue,WA,AAAYX, 47.57906,-122.17030,1
AMC CLASSIC Cascade Mall 14,AMC,Burlington,WA,AAJMJ, 48.46430,-122.33700,1
AMC CLASSIC Kennewick 12,AMC,Kennewick,WA,AAOEF, 46.22442,-119.23250,1
AMC Kent Station 14,AMC,Kent,WA,AATVQ, 47.38475,-122.23420,1
AMC Lakewood Mall 12,AMC,Lakewood,WA,AAAYN, 47.16130,-122.52000,1
AMC Loews Alderwood Mall 16,AMC,Lynnwood,WA,AATFT, 47.82900,-122.27800,1
AMC Pacific Place 11,AMC,Seattle,WA,AAIYA, 47.61245,-122.33390,1
AMC Oak Tree 6,AMC,Seattle,WA,AAAYZ, 47.70160,-122.34400,1
AMC Kitsap 8,AMC,Silverdale,WA,AAFNB, 47.65452,-122.69080,1
AMC River Park Square 20,AMC,Spokane,WA,AANJZ, 47.65916,-117.41690,1
AMC Southcenter 16,AMC,Tukwila,WA,AAUXG, 47.46049,-122.25940,1
AMC Vancouver Mall 23,AMC,Vancouver,WA,AAWRU, 45.65630,-122.58320,1
AMC CLASSIC Mill Plain 8,AMC,Vancouver,WA,AATSA, 45.61598,-122.55180,1
AMC Loews Woodinville 12,AMC,Woodinville,WA,AAFWI, 47.75550,-122.15500,1
AMC CLASSIC Desert Star 15,AMC,Baraboo,WI,AAOTE, 43.60430, -89.79170,1
AMC Fitchburg 18,AMC,Fitchburg,WI,AAOMJ, 43.01420, -89.46830,1
AMC CLASSIC Johnson Creek 12,AMC,Johnson Creek,WI,AANDR, 43.08340, -88.76370,1
AMC Classic Manitowoc 10,AMC,Manitowoc,WI,AAXGR, 44.17440, -87.58310,1
AMC Mayfair Mall 18,AMC,Wauwatosa,WI,AANCU, 43.06358, -88.04771,1
AMC Morgantown 12,AMC,Morgantown,WV,AALWT, 39.63260, -79.99770,1
Cornelius Cinemas,Act V Theaters,Cornelius,OR,AACTP, 45.52020,-123.03850,2
Beach Cinema Alehouse,Act V Theaters,Virginia Beach,VA,AAPND, 36.85740, -75.98830,2
SIFF: Mary D. Fisher & Alice Gill-Sheldon Theatre,Agile Ticketing,Sedona,AZ,AAYLD, 34.86418,-111.79600,3
The Loft Cinema,Agile Ticketing,Tucson,AZ,AAMPB, 32.23600,-110.92362,3
Lark Theater,Agile Ticketing,Larkspur,CA,AAFBJ, 37.93690,-122.53520,3
Sequoia Cinema,Agile Ticketing,Mill Valley,CA,AAQCH, 37.90650,-122.54680,3
Smith Rafael Film Center,Agile Ticketing,San Rafael,CA,AAMMQ, 37.97340,-122.52870,3
Avon Theatre,Agile Ticketing,Stamford,CT,AALIB, 41.05717, -73.53836,3
O Cinema,Agile Ticketing,Miami Beach,FL,AARCY, 25.78290, -80.13260,3
Salina Art Center Cinema,Agile Ticketing,Salina,KS,AAQMT, 38.83850, -97.60960,3
Kentucky Theatre,Agile Ticketing,Lexington,KY,AAOAD, 38.04432, -84.49550,3
Nantucket Dreamland ,Agile Ticketing,Nantucket,MA,AAPXX, 41.28470, -70.09837,3
The Main Cinema,Agile Ticketing,Minneapolis,MN,AAICD, 44.98470, -93.25600,3
The Moxie Cinema,Agile Ticketing,Springfield,MO,AAUYM, 37.20820, -93.29474,3
The Roxy Theater,Agile Ticketing,Missoula,MT,AAXCC, 46.86444,-113.99712,3
The Park Theatre,Agile Ticketing,Jaffrey,NH,AAYCE, 42.81490, -72.02390,3
The Beverly Theater,Agile Ticketing,Las Vegas,NV,AAYYL, 36.16336, 115.14300,3
Cinema Arts Centre,Agile Ticketing,Huntington,NY,AAHQW, 40.87300, -73.41470,3
The Moviehouse,Agile Ticketing,Millerton,NY,AANYN, 41.95400, -73.50960,3
Firehouse: DCTV's Cinema for Documentary Film,Agile Ticketing,New York,NY,AAYXV, 40.71750, -74.00110,3
Hollywood Theatre,Agile Ticketing,Portland,OR,AANVP, 45.53550,-122.62000,3
Bryn Mawr Film Institute,Agile Ticketing,Bryn Mawr,PA,AADJG, 40.02160, -75.31911,3
Midtown Cinema,Agile Ticketing,Harrisburg,PA,AAQGL, 40.27120, -76.89140,3
PFS - Bourse Theater,Agile Ticketing,Philadelphia,PA,AADJC, 39.94930, -75.14760,3
PFS - East Theater ,Agile Ticketing,Philadelphia,PA,AANDQ, 39.94777, -75.14407,3
The United Theatre,Agile Ticketing,Westerly,RI,QQXXV, 41.38000,  71.82941,3
Ashland Theatre,Agile Ticketing,Ashland,VA,AAYNS, 37.75863, -77.47936,3
Grandin Theatre,Agile Ticketing,Roanoke,VA,AAMXL, 37.26550, -79.97710,3
Alamo Drafthouse Cinema Downtown LA,Alamo Drafthouse Cinemas,Los Angeles,CA,AAYPC, 34.04776,-118.26090,4
Alamo Drafthouse Cinema New Mission,Alamo Drafthouse Cinemas,San Francisco,CA,AAXPV, 37.75621,-122.42120,4
Alamo Drafthouse Sloans Lake,Alamo Drafthouse Cinemas,Denver,CO,AAYDH, 39.74030,-105.04230,4
Alamo Drafthouse Littleton,Alamo Drafthouse Cinemas,Littleton,CO,AAWWA, 39.58440,-105.02360,4
Alamo Drafthouse Westminster,Alamo Drafthouse Cinemas,Westminster,CO,AAYPB, 39.86820,-105.06250,4
Alamo Drafthouse Cinema DC Bryant Street,Alamo Drafthouse Cinemas,Washington,DC,AAYVX, 38.92208, -76.99752,4
Alamo Drafthouse Naples,Alamo Drafthouse Cinemas,Naples,FL,AAVQT, 26.25230, -81.79790,4
Alamo Drafthouse Wrigleyville,Alamo Drafthouse Cinemas,Chicago,IL,AAYSE, 41.94620, -87.65546,4
Alamo Drafthouse Indianapolis,Alamo Drafthouse Cinemas,Indianapolis,IN,AATHT, 39.82710, -86.23940,4
Alamo Drafthouse Cinema Boston Seaport,Alamo Drafthouse Cinemas,Boston,MA,AAYXQ, 42.35280, -71.04710,4
Alamo Drafthouse Woodbury Lakes,Alamo Drafthouse Cinemas,Woodbury,MN,AAYJS, 44.94710, -92.92650,4
Alamo Drafthouse Cinema Springfield,Alamo Drafthouse Cinemas,Springfield,MO,AAYBG, 37.14190, -93.29450,4
Alamo Drafthouse City Foundry,Alamo Drafthouse Cinemas,St. Louis,MO,AAYWW, 38.63350, -90.24102,4
Alamo Drafthouse Raleigh,Alamo Drafthouse Cinemas,Raleigh,NC,AAYHH, 35.77847, -78.60491,4
Alamo Drafthouse Cinema La Vista,Alamo Drafthouse Cinemas,La Vista,NE,AAXMN, 41.17770, -96.11200,4
Alamo Drafthouse Downtown Brooklyn,Alamo Drafthouse Cinemas,Brooklyn,NY,AAXUN, 40.69300, -73.98330,4
Alamo Drafthouse Cinema Lower Manhattan,Alamo Drafthouse Cinemas,New York,NY,AAYQO, 40.70776, -74.00885,4
Alamo Drafthouse Cinema Staten Island,Alamo Drafthouse Cinemas,Staten Island,NY,AAYQP, 40.56423, -74.10944,4
Alamo Drafthouse Yonkers,Alamo Drafthouse Cinemas,Yonkers,NY,AAWWC, 40.98570, -73.82560,4
Alamo Drafthouse Cinema Slaughter Lane,Alamo Drafthouse Cinemas,Austin,TX,AAWQE, 30.20100, -97.86850,4
Alamo Drafthouse Cinema South Lamar,Alamo Drafthouse Cinemas,Austin,TX,AATHS, 30.25554, -97.76332,4
Alamo Drafthouse Cinema Village,Alamo Drafthouse Cinemas,Austin,TX,AAPPY, 30.35820, -97.73510,4
Alamo Drafthouse Lakeline,Alamo Drafthouse Cinemas,Austin,TX,AAWYO, 30.47547, -97.80431,4
Alamo Drafthouse Mueller,Alamo Drafthouse Cinemas,Austin,TX,AAYBF, 30.29810, -97.70730,4
Alamo Drafthouse Corpus Christi,Alamo Drafthouse Cinemas,Corpus Christi,TX,AAXZB, 27.66570, -97.39850,4
Alamo Drafthouse Cinema Cedars,Alamo Drafthouse Cinemas,Dallas,TX,AAXTR, 32.77000, -96.79800,4
Alamo Drafthouse Lake Highlands,Alamo Drafthouse Cinemas,Dallas,TX,AAYHW, 32.86730, -96.74180,4
Alamo Drafthouse Denton,Alamo Drafthouse Cinemas,Denton,TX,AAYJE, 33.22500, -97.16860,4
Alamo Drafthouse Montecillo,Alamo Drafthouse Cinemas,El Paso,TX,AAXUO, 31.81287,-106.51100,4
Alamo Drafthouse East El Paso,Alamo Drafthouse Cinemas,El Paso,TX,AAYUQ, 31.72734,-106.26750,4
Alamo Drafthouse Las Colinas,Alamo Drafthouse Cinemas,Irving,TX,AAYGW, 32.87480, -96.94420,4
Alamo Drafthouse Cinema LaCenterra,Alamo Drafthouse Cinemas,Katy,TX,AAYJN, 29.74132, -95.77663,4
Alamo Drafthouse Laredo,Alamo Drafthouse Cinemas,Laredo,TX,AAXPW, 27.61964, -99.47002,4
Alamo Drafthouse Lubbock,Alamo Drafthouse Cinemas,Lubbock,TX,AAXFA, 33.59685,-101.92370,4
Alamo Drafthouse Cinema Richardson,Alamo Drafthouse Cinemas,Richardson,TX,AAWYM, 32.94930, -96.73830,4
Alamo Drafthouse Stone Oak,Alamo Drafthouse Cinemas,San Antonio,TX,AAWIA, 29.65381, -98.44724,4
Alamo Drafthouse Park North,Alamo Drafthouse Cinemas,San Antonio,TX,AAVTR, 29.52015, -98.50258,4
Alamo Drafthouse Crystal City,Alamo Drafthouse Cinemas,Arlington,VA,AAYWV, 38.85883, -77.04932,4
Alamo Drafthouse One Loudoun,Alamo Drafthouse Cinemas,Ashburn,VA,AAWYL, 39.05203, -77.45509,4
Alamo Drafthouse Cinema Charlottesville,Alamo Drafthouse Cinemas,Charlottesville,VA,AAYEE, 38.01100, -78.49860,4
Alamo Drafthouse Winchester,Alamo Drafthouse Cinemas,Winchester,VA,AAVSN, 39.11980, -78.19490,4
Alamo Drafthouse Woodbridge,Alamo Drafthouse Cinemas,Woodbridge,VA,AAYJH, 38.62730, -77.28770,4
The Tower Theatre by Angelika,Angelika Film Center,Sacramento,CA,AADEA, 38.56160,-121.49170,5
Angelika Film Center & Cafe Carmel Mountain,Angelika Film Center,San Diego,CA,AAAWG, 32.98127,-117.08200,5
Angelika Pop-Up at Union Market,Angelika Film Center,Washington,DC,AAXGL, 38.90970, -76.99600,5
Angelika Film Center & Cafe,Angelika Film Center,NEW YORK,NY,AAECI, 40.72580, -73.99780,5
Cinema 123 by Angelika ,Angelika Film Center,New York,NY,AAECB, 40.76170, -73.96670,5
Village East By Angelika,Angelika Film Center,New York,NY,AAECF, 40.73060, -73.98680,5
Angelika Film Center & Cafe,Angelika Film Center,Dallas,TX,AAPOY, 32.83660, -96.77660,5
Angelika Film Center & Cafe at Mosaic,Angelika Film Center,Fairfax,VA,AAWTP, 38.87231, -77.22852,5
Apple Cinemas Xtreme Hartford,Apple Cinemas,Hartford,CT,AAYVS, 41.74725, -72.71241,6
Apple Cinemas Simsbury,Apple Cinemas,Simsbury,CT,AAOKB, 41.81735, -72.86424,6
Apple Cinemas Torrington,Apple Cinemas,Torrington,CT,AAMSN, 41.81321, -73.12378,6
Apple Cinemas Brass Mill,Apple Cinemas,Waterbury,CT,AAGDZ, 41.54799, -73.02426,6
Apple Cinemas Cambridge,Apple Cinemas,Cambridge,MA,AABBI, 42.41411, -71.13193,6
Apple Cinemas Saco IMAX,Apple Cinemas,Saco,ME,AAPEP, 43.52858, -70.42431,6
Apple Cinemas Westbrook,Apple Cinemas,Westbrook,ME,AAUBA, 43.65132, -70.35043,6
Apple Cinemas Hooksett IMAX,Apple Cinemas,Hooksett,NH,AAUOC, 43.04127, -71.43921,6
Apple Cinemas Merrimack,Apple Cinemas,Merrimack,NH,AATGL, 42.84669, -71.49729,6
Apple Cinemas Pittsford,Apple Cinemas,Pittsford,NY,AAETP, 43.10129, -77.53836,6
Apple Cinemas Greece Ridge,Apple Cinemas,Rochester,NY,AAKGR, 43.20516, -77.68886,6
Apple Cinemas White Plains,Apple Cinemas,White Plains,NY,AARCK, 41.03214, -73.76633,6
Apple Cinemas Warwick,Apple Cinemas,Warwick,RI,AAPMQ, 41.72496, -71.47880,6
Atlas Cinemas Barrington 10,Atlas Cinemas,Aurora,OH,AATYD, 41.31905, -81.34891,7
Atlas Cinemas at Shaker Square,Atlas Cinemas,Cleveland,OH,AAFYB, 41.48320, -81.59120,7
Atlas Lakeshore 7,Atlas Cinemas,Euclid,OH,AAFYA, 41.61130, -81.52420,7
Atlas Cinema Great Lakes Stadium 16,Atlas Cinemas,Mentor,OH,AAUQV, 41.66120, -81.35990,7
Atlas Diamond Center 16,Atlas Cinemas,Mentor,OH,AAFYC, 41.71569, -81.29674,7
Atrium Cinema,Atrium Theater,Staten Island,NY,AAEFL, 40.56010, -74.16380,8
B&B Theatres Wesley Chapel - The Grove 16,B&B Theaters,Wesley Chapel,FL,AAUYL, 28.24982, -82.35001,9
B&B Theatres Athens 12,B&B Theaters,Athens,GA,AANGV, 33.94495, -83.35400,9
B&B Theatres Ankeny 12,B&B Theaters,Ankeny,IA,AAYNR, 41.71495, -93.61926,9
B&B Theatres Dodge City Village 8,B&B Theaters,Dodge City,KS,AAJWJ, 37.77811,-100.01830,9
B&B Theatres Emporia Flinthills 8 Cinemas,B&B Theaters,Emporia,KS,AAJHJ, 38.41730, -96.21650,9
B&B Theatres Hutchinson Mall 8,B&B Theaters,Hutchinson,KS,AAJHF, 38.06500, -97.90310,9
B&B Theatres Junction City Gem,B&B Theaters,Junction City,KS,AAXHJ, 39.02820, -96.84770,9
B&B Theatres Leavenworth Landing 5,B&B Theaters,Leavenworth,KS,AAGMA, 39.31840, -94.91060,9
B&B Theatres Overland Park 16,B&B Theaters,Overland Park,KS,AATDF, 38.88340, -94.68540,9
B&B Theatres Shawnee 18,B&B Theaters,Shawnee,KS,AAGKV, 38.99860, -94.77460,9
B&B Theatres Topeka Wheatfield 9,B&B Theaters,Topeka,KS,AAYRG, 39.01680, -95.74380,9
B&B Theatres Bloomington 13 at Mall of America,B&B Theaters,Bloomington,MN,AAVAI, 44.85371, -93.24370,9
B&B Theatres Bolivar Cinema 5,B&B Theaters,Bolivar,MO,AAJWA, 37.59730, -93.39960,9
B&B Theatres Chillicothe Grand 6,B&B Theaters,Chillicothe,MO,AANZZ, 39.79440, -93.55410,9
B&B Theatres Missouri 6,B&B Theaters,Clinton,MO,AAXSS, 38.36520, -93.75720,9
B&B Theatres Creve Coeur West Olive 10,B&B Theaters,Creve Coeur,MO,AACVY, 38.67974, -90.46629,9
B&B Theatres Festus 8 Cinema,B&B Theaters,Festus,MO,AAIEP, 38.21264, -90.41450,9
B&B Theatres Grain Valley Marketplace 8 & GS,B&B Theaters,Grain Valley,MO,AAXEP, 39.02400, -94.19510,9
B&B Theatres Main Street Cinema 8,B&B Theaters,Hannibal,MO,AAVMQ, 39.70550, -91.39740,9
B&B Theatres Harrisonville Cineplex,B&B Theaters,Harrisonville,MO,AAJXF, 38.66060, -94.37260,9
B&B Theatres Northland 14,B&B Theaters,Kansas City,MO,AARFQ, 39.23880, -94.52190,9
B&B Theatres Mainstreet KC,B&B Theaters,Kansas City,MO,AAWSR, 39.09690, -94.58588,9
B&B Theatres Lebanon Ritz 8,B&B Theaters,Lebanon,MO,AAJXJ, 37.67290, -92.65380,9
B&B Theatres New Longview 7,B&B Theaters,Lee's Summit,MO,AAYJB, 38.91130, -94.44780,9
B&B Theatres Lee’s Summit 16,B&B Theaters,Lees Summit,MO,AANPA, 38.93869, -94.37650,9
B&B Theatres Liberty Cinema 12,B&B Theaters,Liberty ,MO,AAYKF, 39.24281, -94.45023,9
B&B Theatres Moberly 5,B&B Theaters,Moberly,MO,AAJYA, 39.45570, -92.43400,9
B&B Theatres Monett Plaza 8,B&B Theaters,Monett,MO,AALIL, 36.91230, -93.91170,9
B&B Theatres Neosho Cinema 6,B&B Theaters,Neosho,MO,AAPZI, 36.83640, -94.39440,9
B&B TheatresOzark-Nixa 12 with Marquee Suites & GS,B&B Theaters,Ozark,MO,AAWOX, 37.00930, -93.21350,9
B&B Theatres Sedalia Galaxy 10,B&B Theaters,Sedalia,MO,AAVJR, 38.71370, -93.27965,9
B&B Theatres Warrensburg 10,B&B Theaters,Warrensburg,MO,AAVLJ, 38.78255, -93.73308,9
B&B Theatres Waynesville Patriot 12 & GS,B&B Theaters,Waynesville,MO,AAXGQ, 37.81030, -92.21390,9
B&B Theatres Wentzville Tower 12,B&B Theaters,Wentzville,MO,AAXSR, 38.80350, -90.85850,9
B&B Theatres Wildwood 10 & GS,B&B Theaters,Wildwood,MO,AAWHO, 38.57220, -90.62260,9
B&B Theatres Ridgeland 14,B&B Theaters,Ridgeland,MS,AAJJS, 32.40564, -90.13163,9
B&B Theatres Morrisville Park West 14,B&B Theaters,Morrisville,NC,AAWWY, 35.80814, -78.82179,9
B&B Theatres Grand Island 7,B&B Theaters,Grand Island,NE,AARGL, 40.93594, -98.38129,9
B&B Theatres Omaha Oakview Plaza 14,B&B Theaters,Omaha,NE,AAEAB, 41.22528, -96.13000,9
B&B Theatres Macedonia,B&B Theaters,Macedonia,OH,AAMFW, 41.30968, -81.51587,9
B&B Theatres Claremore Cinema 8,B&B Theaters,Claremore,OK,AATLS, 36.29290, -95.62390,9
B&B Theatres Miami Cineplex,B&B Theaters,Miami,OK,AAWAG, 36.87800, -94.87750,9
B&B Theatres Sapulpa Cinema 8,B&B Theaters,Sapulpa,OK,AARGP, 36.01180, -96.09880,9
B&B Theatres Tulsa Starworld 20,B&B Theaters,Tulsa,OK,AAMEQ, 36.01460, -95.88580,9
B&B Theatres Conway 12,B&B Theaters,Conway,SC,AAUOV, 33.85506, -79.08974,9
B&B Theatres North Richland Hills 8,B&B Theaters,North Richland Hills,TX,AAYOG, 32.83887, -97.21427,9
B&B Theatres Port Arthur Central Mall 10,B&B Theaters,Port Arthur,TX,AAOQU, 29.95180, -93.98890,9
B&B Theatres Portland Northshore 8,B&B Theaters,Portland,TX,AAUWK, 27.89818, -97.31184,9
B&B Theaters Red Oak 12,B&B Theaters,Red Oak,TX,AAYYZ, 32.53766, -96.82548,9
B&B Theatres Wylie 12 with Marquee Suites & GS,B&B Theaters,Wylie,TX,AAXAP, 33.00340, -96.57760,9
B&B Theatres Blacksburg 11,B&B Theaters,Blacksburg,VA,AAXMM, 37.21264, -80.39999,9
B&B Theatres Airway Heights 8,B&B Theaters,Airway Heights,WA,AAYVN, 47.65718,-117.56514,9
Hillsborough Cinemas,BJK Entertainment,Hillsborough,NJ,AAPDP, 40.49245, -74.64452,10
BarnZ's Barrington Cinema,BarnZs,Barrington,NH,AAVTP, 43.20770, -70.99660,11
BarnZ's Meredith Cinema,BarnZs,Meredith,NH,AAUSH, 43.66051, -71.49749,11
Bay City 10 GDX,Bay City Cinemas,Bay City,MI,AAKJR, 43.62790, -83.89189,13
Krikorian Theatres at LexLive,Big Picture Ventures,Lexington,KY,AAYVF, 38.04787, -84.50211,14
Brenden Kingman 4,Brenden Theatres,Kingman,AZ,AAVEB, 35.24102,-114.04200,16
Brenden Concord 14 & JBX,Brenden Theatres,Concord,CA,AAFWG, 37.97600,-122.03480,16
Brenden Modesto 18 & JBX,Brenden Theatres,Modesto,CA,AANCS, 37.64070,-120.99970,16
Brenden Vacaville 16 & JBX,Brenden Theatres,Vacaville,CA,AAJYN, 38.35370,-121.98520,16
Brenden Rifle 7,Brenden Theatres,Rifle,CO,AAWNW, 39.53065,-107.78500,16
Brenden Las Vegas 14 IMAX & JBX at The Palms,Brenden Theatres,Las Vegas,NV,AAQEG, 36.11540,-115.19730,16
CMX Pinnacle 14,CMX Cinemas,Gulf Shores,AL,AATQJ, 30.30130, -87.68280,19
CMX Hollywood 16 & IMAX,CMX Cinemas,Tuscaloosa,AL,AATCI, 33.16630, -87.54690,19
CMX Countryside,CMX Cinemas,Clearwater,FL,AAWMS, 28.01730, -82.73750,19
CMX Daytona 12,CMX Cinemas,Daytona Beach,FL,AAYAM, 29.19694, -81.07699,19
CMX CinéBistro CityPlace Doral,CMX Cinemas,Doral,FL,AAYAX, 25.80940, -80.33090,19
CMX Lakeside Village 18 & IMAX,CMX Cinemas,Lakeland,FL,AATTY, 28.00690, -81.97320,19
CMX Dolphin 19 & IMAX,CMX Cinemas,Miami,FL,AAPLF, 25.77820, -80.35980,19
CMX Brickell Dine-In,CMX Cinemas,Miami,FL,AAYFN, 25.76716, -80.19314,19
CMX Miami Lakes 13,CMX Cinemas,Miami Lakes,FL,AAEJZ, 25.91300, -80.30980,19
CMX CinéBistro Coastland,CMX Cinemas,Naples,FL,AAYVP, 26.17076, -81.79820,19
CMX Downtown At The Gardens + IMAX,CMX Cinemas,Palm Beach Gardens,FL,AATTX, 26.85980, -80.08700,19
CMX Tyrone 10,CMX Cinemas,Saint Petersburg,FL,AAXUS, 27.79740, -82.73480,19
CMX CinéBistro Siesta Key,CMX Cinemas,Sarasota,FL,AAXTW, 27.30100, -82.52830,19
CMX Fallschase,CMX Cinemas,Tallahassee,FL,AAYKR, 30.47580, -84.11180,19
CMX CinéBistro Hyde Park,CMX Cinemas,Tampa,FL,AAVQA, 27.93730, -82.47590,19
CMX Wellington,CMX Cinemas,Wellington,FL,AAYAE, 26.65105, -80.20900,19
CMX Grand 10,CMX Cinemas,Winter Haven,FL,AAEJL, 28.04300, -81.73610,19
CMX CinéBistro Halcyon,CMX Cinemas,Alpharetta,GA,AAYRC, 34.11220, -84.22270,19
CMX CinéBistro Peachtree Corners,CMX Cinemas,Norcross,GA,AAYOC, 33.94121, -84.21353,19
CMX Old Orchard Luxury,CMX Cinemas,Skokie,IL,AAYHU, 42.05910, -87.74950,19
CMX Odyssey IMAX,CMX Cinemas,Burnsville,MN,AAUYA, 44.74112, -93.28644,19
CMX Chateau 14,CMX Cinemas,Rochester,MN,AAQTO, 44.05946, -92.45055,19
CMX CinéBistro Waverly Place,CMX Cinemas,Cary,NC,AAXPZ, 35.73930, -78.77600,19
CMX Liberty Luxury,CMX Cinemas,Liberty Township,OH,AAXRJ, 39.37209, -84.37479,19
CMX Village 14,CMX Cinemas,Leesburg,VA,AAWKF, 39.09000, -77.52000,19
CMX CinéBistro Tysons Galleria,CMX Cinemas,McLean,VA,AAYXI, 38.92400, -77.22530,19
CMX CinéBistro Stony Point,CMX Cinemas,Richmond,VA,AAWEI, 37.54800, -77.56900,19
Camana Bay Cinema,Camana Bay Cinemas,Grand Cayman,KY,AAWGB, 19.32231, -81.37850,20
Celebration Cinema Benton Harbor,Celebration Cinema ,Benton Harbor,MI,AAGQX, 42.07620, -86.42260,21
Celebration Cinema Grand Rapids North,Celebration Cinema ,Grand Rapids,MI,AAQOU, 43.00050, -85.59300,21
Celebration Cinema Grand Rapids South,Celebration Cinema ,Grand Rapids,MI,AATVE, 42.84940, -85.62820,21
Celebration Cinema Studio Park,Celebration Cinema ,Grand Rapids ,MI,AAYXZ, 42.96030, -85.67040,21
Celebration Cinema Rivertown,Celebration Cinema ,Grandville,MI,AAUOM, 42.88210, -85.75830,21
Celebration Cinema Lansing,Celebration Cinema ,Lansing,MI,AAKAL, 42.65995, -84.55029,21
Celebration Cinema Mt Pleasant,Celebration Cinema ,Mt. Pleasant,MI,AAOWJ, 43.61390, -84.74990,21
Cinema Carousel,Celebration Cinema ,Muskegon,MI,AAHYQ, 43.17380, -86.22100,21
Studio C Meridian Mall,Celebration Cinema ,Okemos,MI,AAXAD, 42.72750, -84.42150,21
Celebration Cinema Crossroads,Celebration Cinema ,Portage,MI,AACGD, 42.22100, -85.59800,21
TCL Chinese Theatres + IMAX,Chinese Theatres,Hollywood,CA,AAACD, 34.10149,-118.34100,22
CineLux Gilroy Cafe & Lounge,Cinelux Theatres,Gilroy,CA,AAORD, 36.99786,-121.56580,23
CineLux Los Gatos Theatre,Cinelux Theatres,Los Gatos,CA,AAFRG, 37.22389,-121.98350,23
CineLux Almaden Cafe & Lounge,Cinelux Theatres,San Jose,CA,AAFQQ, 37.29035,-121.88030,23
CineLux Green Valley Cinema,Cinelux Theatres,Watsonville,CA,AANDB, 36.91657,-121.78610,23
Oaks 7 VIP Cinema,Cinema Hosting,Batesville,AR,AAJJE, 35.76836, -91.62750,24
The Movie Experience - Colony Cinemas,Cinema Hosting,Atascadero,CA,AAPEH, 35.48747,-120.66520,24
Premiere Theaters - Oaks 10,Cinema Hosting,Melbourne,FL,AAEKF, 28.08659, -80.65266,24
Hayden Cinema,Cinema Hosting,Hayden Lake,ID,AAITN, 47.74770,-116.79000,24
Sandpoint Cinemas,Cinema Hosting,Ponderay,ID,AAOYD, 48.30174,-116.54180,24
North Pointe Cinemas,Cinema Hosting,Warsaw,IN,AAKAH, 41.25189, -85.82445,24
Cine 5 Theatre,Cinema Hosting,International Falls,MN,AAPTU, 48.59880, -93.42022,24
SModcastle Cinemas,Cinema Hosting,Atlantic Highlands,NJ,AAKCR, 40.41355, -74.03774,24
The Cañon,Cinema Lab,Canon City,CO,AAVEX, 38.44612,-105.18490,25
Cineplanet 15,Cinema Management Group Inc,Madison,AL,AAYET, 34.75760, -86.74180,26
Hollywood 10 Cinema,Cinema Management Group Inc,Scottsboro,AL,AAVMA, 34.62610, -86.05270,26
Hollywood Cinema 16,Cinema Management Group Inc,Jackson,TN,AANIM, 35.66900, -88.84500,26
Cinema 1 Plus,Cinema One Plus,Washington,MO,AAGQD, 38.53690, -91.00440,27
Angels Theatre,Cinema West,Angels Camp,CA,AAOMH, 38.06928,-120.54030,28
2nd Street Cinema,Cinema West,Beaumont,CA,AAYVE, 33.92233,-116.95670,28
Veranda LUXE Cinema & IMAX,Cinema West,Concord,CA,AAYGQ, 37.97360,-122.05770,28
Cinema West Beach Cities - El Segundo,Cinema West,El Segundo,CA,AADKA, 33.90350,-118.38970,28
Fairfax Theatre,Cinema West,Fairfax,CA,AAFBI, 37.98680,-122.58760,28
Palladio 16 Cinema,Cinema West,Folsom,CA,AAVTZ, 38.64877,-121.11990,28
Palladio LUXE Cinema,Cinema West,Folsom,CA,AAXYO, 38.64910,-121.12140,28
Civic Plaza 12 Cinema,Cinema West,Hesperia,CA,AAWUX, 34.42638,-117.31990,28
Livermore 13 Cinema,Cinema West,Livermore,CA,AAUGN, 37.68358,-121.76960,28
Boulevard 14 Cinema,Cinema West,Petaluma,CA,AAITS, 38.23331,-122.63800,28
Placerville Cinema,Cinema West,Placerville,CA,AAKED, 38.73201,-120.83379,28
Cinema West Olympus Pointe,Cinema West,Roseville,CA,AACXC, 38.75725,-121.25570,28
Country Club Cinema,Cinema West,Sacramento,CA,AAYOJ, 38.60830,-121.37850,28
State Theatre and Multiplex,Cinema West,Woodland,CA,AAYEW, 38.67720,-121.77740,28
BoDo Cinema,Cinema West,Boise,ID,AATSQ, 43.61330,-116.20493,28
Village Cinema,Cinema West,Meridian,ID,AAXCD, 43.62149,-116.34950,28
Magic Valley Cinema 13,Cinema West,Twin Falls,ID,AAWQS, 42.59218,-114.45620,28
Cinemark Century Anchorage 16 and XD,Cinemark Theatres,Anchorage,AK,AAJNH, 61.18850,-149.87650,29
Cinemark Bridge Street and XD,Cinemark Theatres,Huntsville,AL,AAURU, 34.75850, -86.69020,29
Cinemark Tinseltown USA Benton,Cinemark Theatres,Benton,AR,AAIQA, 34.58610, -92.58210,29
Cinemark Towne Centre and XD,Cinemark Theatres,Conway,AR,AAWFU, 35.11220, -92.43180,29
Cinemark Colonel Glenn and XD,Cinemark Theatres,Little Rock,AR,AAQSF, 34.71060, -92.41030,29
Cinemark Mesa 16,Cinemark Theatres,Mesa,AZ,AATZN, 33.43371,-111.87040,29
Cinemark Century Oro Valley Marketplace,Cinemark Theatres,Oro Valley,AZ,AAUZR, 32.40980,-110.99560,29
Cinemark Sierra Vista 10,Cinemark Theatres,Sierra Vista,AZ,AAOJL, 31.52720,-110.25830,29
Cinemark Century El Con 20 and XD,Cinemark Theatres,Tucson,AZ,AANGB, 32.22160,-110.91590,29
Cinemark Century Park Place 20 and XD,Cinemark Theatres,Tucson,AZ,AAPQI, 32.22140,-110.86720,29
Cinemark Century Tucson Marketplace and XD,Cinemark Theatres,Tucson,AZ,AAXZU, 32.18708,-110.95390,29
Cinemark Jess Ranch,Cinemark Theatres,Apple Valley,CA,AAVIT, 34.47090,-117.24740,29
Cinemark Carson and XD,Cinemark Theatres,Carson,CA,AAXOC, 33.84360,-118.26310,29
Cinemark Tinseltown Chico 14 and XD,Cinemark Theatres,Chico,CA,AANSN, 39.76080,-121.84520,29
Cinemark Chino Movies 8,Cinemark Theatres,Chino,CA,AAHOP, 34.03310,-117.68260,29
Cinemark Century Daly City 20 XD and IMAX,Cinemark Theatres,Daly City,CA,AAQLT, 37.70214,-122.47030,29
Cinemark Downey and XD,Cinemark Theatres,Downey,CA,AAXSY, 33.91674,-118.12980,29
Cinemark Imperial Valley Mall 14,Cinemark Theatres,El Centro,CA,AAUTF, 32.75750,-115.53480,29
Cinemark Century Laguna 16 and XD,Cinemark Theatres,Elk Grove,CA,AACFA, 38.41980,-121.40530,29
Cinemark Century Folsom 14,Cinemark Theatres,Folsom,CA,AACFC, 38.64230,-121.18520,29
Cinemark Century at Pacific Commons and XD,Cinemark Theatres,Fremont,CA,AAWQB, 37.50394,-121.97340,29
Cinemark Hanford Movies 8,Cinemark Theatres,Hanford,CA,AAIOX, 36.32790,-119.66850,29
Cinemark Century Southland Mall,Cinemark Theatres,Hayward,CA,AAYNH, 37.65070,-122.10080,29
Cinemark Century at Hayward,Cinemark Theatres,Hayward,CA,AAVAC, 37.67354,-122.08140,29
Cinemark Century Huntington Beach and XD,Cinemark Theatres,Huntington Beach,CA,AATTF, 33.73030,-117.99330,29
Cinemark Century La Quinta and XD,Cinemark Theatres,La Quinta,CA,AAXRH, 33.70856,-116.29490,29
Cinemark Lancaster IMAX and ScreenX,Cinemark Theatres,Lancaster,CA,AANES, 34.70380,-118.17300,29
Cinemark At The Pike Outlets and XD,Cinemark Theatres,Long Beach,CA,AARDY, 33.77000,-118.18600,29
Cinemark Howard Hughes Los Angeles and XD,Cinemark Theatres,Los Angeles,CA,AAPIW, 33.97810,-118.39150,29
Cinemark Baldwin Hills Crenshaw and XD,Cinemark Theatres,Los Angeles,CA,AAWJU, 34.01160,-118.33740,29
Cinemark Century Marina and XD,Cinemark Theatres,Marina,CA,AAXQE, 36.66460,-121.80950,29
Cinemark Century Great Mall 20 XD and ScreenX,Cinemark Theatres,Milpitas,CA,AAPCG, 37.41330,-121.89750,29
Cinemark Century Monterey 13,Cinemark Theatres,Monterey,CA,AATCN, 36.58440,-121.89960,29
Cinemark Century Mountain View 16,Cinemark Theatres,Mountain View,CA,AACFX, 37.41470,-122.08090,29
Cinemark Century Napa Valley and XD,Cinemark Theatres,Napa,CA,AAWTT, 38.28300,-122.27850,29
Cinemark Century North Hollywood,Cinemark Theatres,North Hollywood,CA,AACEL, 34.18670,-118.41130,29
Cinemark Century Rowland Plaza,Cinemark Theatres,Novato,CA,AAQCK, 38.09489,-122.55630,29
Cinemark Century Orange and XD,Cinemark Theatres,Orange,CA,AAEGJ, 33.80770,-117.86860,29
Cinemark Century Riverpark and XD,Cinemark Theatres,Oxnard,CA,AAWTS, 34.24097,-119.17550,29
Cinemark at Antelope Valley Mall,Cinemark Theatres,Palmdale,CA,AAUFT, 34.60180,-118.15470,29
Cinemark Playa Vista and XD,Cinemark Theatres,Playa Vista,CA,AAXLR, 33.97751,-118.41652,29
Cinemark Century Downtown Pleasant Hill 16 and XD,Cinemark Theatres,Pleasant Hill,CA,AAQAM, 37.94470,-122.06180,29
Cinemark Century at the River and XD,Cinemark Theatres,Rancho Mirage,CA,AAQMO, 33.74000,-116.41010,29
Cinemark Redding 14 and XD,Cinemark Theatres,Redding,CA,AAIPO, 40.58840,-122.34590,29
Cinemark Century Redwood Downtown 20 and XD,Cinemark Theatres,Redwood City,CA,AAUBF, 37.48576,-122.22860,29
Cinemark Bistro Renaissance Marketplace and XD,Cinemark Theatres,Rialto,CA,AAYLH, 34.13535,-117.39810,29
Cinemark Century Hilltop 16,Cinemark Theatres,Richmond,CA,AAQAL, 37.98180,-122.32150,29
Cinemark Century Blue Oaks Theatres and XD,Cinemark Theatres,Rocklin,CA,AAWFR, 38.79819,-121.29240,29
Cinemark Roseville Galleria Mall and XD,Cinemark Theatres,Roseville,CA,AAYWE, 38.77403,-121.27460,29
Cinemark Century Greenback Lane 16 and XD,Cinemark Theatres,Sacramento,CA,AAQSI, 38.67960,-121.33400,29
Cinemark Century Arden 14 and XD,Cinemark Theatres,Sacramento,CA,AAXZV, 38.59386,-121.41870,29
Cinemark Century DOCO and XD,Cinemark Theatres,Sacramento,CA,AAYHO, 38.58165,-121.50170,29
Cinemark Century Northridge Mall 14,Cinemark Theatres,Salinas,CA,AACFH, 36.71840,-121.65210,29
Cinemark Century at Tanforan and XD,Cinemark Theatres,San Bruno,CA,AAUTX, 37.63799,-122.41800,29
Cinemark Century Oakridge 20 XD and ScreenX,Cinemark Theatres,San Jose,CA,AARBX, 37.25050,-121.86170,29
Cinemark CinéArts Santana Row,Cinemark Theatres,San Jose,CA,AASUR, 37.31912,-121.94860,29
Cinemark Century San Mateo 12,Cinemark Theatres,San Mateo,CA,AAQSG, 37.56640,-122.32280,29
Cinemark Tracy 14,Cinemark Theatres,Tracy,CA,AAHCV, 37.75980,-121.46090,29
Cinemark Century Union Landing 25 and XD,Cinemark Theatres,Union City,CA,AANAY, 37.58830,-122.06560,29
Cinemark Century Vallejo 14,Cinemark Theatres,Vallejo,CA,AAPIS, 38.13210,-122.21460,29
Cinemark Century Ventura Downtown 10,Cinemark Theatres,Ventura,CA,AAJAY, 34.28100,-119.29130,29
Cinemark 16 Victorville and XD,Cinemark Theatres,Victorville,CA,AAUFS, 34.47040,-117.34970,29
Cinemark Century Walnut Creek 14 and XD,Cinemark Theatres,Walnut Creek,CA,AARAR, 37.89660,-122.06150,29
Cinemark Yuba City,Cinemark Theatres,Yuba City,CA,AAVBG, 39.13080,-121.63710,29
Cinemark Century Aurora and XD,Cinemark Theatres,Aurora,CO,AAJNI, 39.70598,-104.82070,29
Cinemark Century Boulder,Cinemark Theatres,Boulder,CO,AAUNI, 40.01660,-105.25610,29
Cinemark Tinseltown Colorado Springs and XD,Cinemark Theatres,Colorado Springs,CO,AAIQK, 38.79200,-104.79800,29
Cinemark Carefree Circle and IMAX,Cinemark Theatres,Colorado Springs,CO,AAPDK, 38.87480,-104.71950,29
Cinemark Fort Collins,Cinemark Theatres,Fort Collins,CO,AAOSZ, 40.52140,-105.03880,29
Cinemark Bistro Fort Collins and XD,Cinemark Theatres,Fort Collins,CO,AAXRY, 40.54432,-105.07640,29
Cinemark Greeley,Cinemark Theatres,Greeley,CO,AARLQ, 40.39006,-104.71363,29
Cinemark Century Bel Mar 16 and XD,Cinemark Theatres,Lakewood,CO,AARMQ, 39.70880,-105.07640,29
Cinemark Tinseltown Pueblo,Cinemark Theatres,Pueblo,CO,AAIQL, 38.31170,-104.61360,29
Cinemark Buckland Hills 18 XD and IMAX,Cinemark Theatres,Manchester,CT,AAFUV, 41.80104, -72.54775,29
Cinemark Connecticut Post 14 and IMAX,Cinemark Theatres,Milford,CT,AATXH, 41.23720, -73.03750,29
Cinemark North Haven and XD,Cinemark Theatres,North Haven,CT,AAXPM, 41.35840, -72.87190,29
Cinemark Christiana and XD,Cinemark Theatres,Christiana,DE,AAXJL, 39.68060, -75.65130,29
Cinemark Wilmington Movies 10,Cinemark Theatres,Wilmington,DE,AAIMP, 39.71570, -75.63100,29
Cinemark Bistro Boca Raton and XD,Cinemark Theatres,Boca Raton,FL,AAOUV, 26.37910, -80.11200,29
Cinemark Boynton Beach 14 and XD,Cinemark Theatres,Boynton Beach,FL,AAULK, 26.53490, -80.09070,29
Cinemark Paradise 24 and XD,Cinemark Theatres,Davie,FL,AAMDD, 26.02850, -80.35680,29
Cinemark Tinseltown Jacksonville and XD,Cinemark Theatres,Jacksonville,FL,AAILI, 30.26341, -81.55394,29
Cinemark Jacksonville Atlantic North and XD,Cinemark Theatres,Jacksonville,FL,AAYVY, 30.32406, -81.49888,29
Cinemark Lakeland Square Mall and XD,Cinemark Theatres,Lakeland,FL,AAXCY, 28.09090, -81.97390,29
Universal Cinemark at CityWalk and XD,Cinemark Theatres,Orlando,FL,AANEY, 28.47450, -81.46360,29
Cinemark Orlando and XD,Cinemark Theatres,Orlando,FL,AAOJK, 28.46320, -81.45060,29
Cinemark Durbin Park and XD,Cinemark Theatres,St. Johns,FL,AAYSV, 30.09834, -81.52156,29
Cinemark Tinseltown Fayetteville 17 and XD,Cinemark Theatres,Fayetteville,GA,AAITI, 33.47750, -84.42940,29
Cinemark Altoona and XD ,Cinemark Theatres,Altoona,IA,AAXUA, 41.66030, -93.48917,29
Cinemark Ames Movies 12,Cinemark Theatres,Ames,IA,AAIQO, 42.01040, -93.61150,29
Cinemark Davenport 18 XD and IMAX,Cinemark Theatres,Davenport,IA,AAKOW, 41.57470, -90.52160,29
Cinemark Century Jordan Creek 20 and XD,Cinemark Theatres,West Des Moines,IA,AASUS, 41.56978, -93.80437,29
Cinemark Majestic Cinemas,Cinemark Theatres,Meridian,ID,AATNU, 43.59148,-116.36625,29
Cinemark Bourbonnais Movies 10,Cinemark Theatres,Bourbonnais,IL,AAIQB, 41.16410, -87.85080,29
Cinemark Century Deer Park 16,Cinemark Theatres,Deer Park,IL,AARMR, 42.16350, -88.05500,29
Cinemark Louis Joliet Mall,Cinemark Theatres,Joliet,IL,AAVIR, 41.57638, -88.16682,29
Cinemark Melrose Park,Cinemark Theatres,Melrose Park,IL,AAMIA, 41.90830, -87.84730,29
Cinemark Tinseltown USA Aurora,Cinemark Theatres,North Aurora,IL,AAITE, 41.79248, -88.32291,29
Cinemark Cantera Warrenville and XD,Cinemark Theatres,Warrenville,IL,AACYL, 41.80502, -88.17106,29
Cinemark Spring Hill Mall and XD,Cinemark Theatres,West Dundee,IL,AAYAN, 42.10029, -88.29534,29
Cinemark Seven Bridges and IMAX,Cinemark Theatres,Woodridge,IL,AAOON, 41.76410, -88.06670,29
Cinemark Greenwood Corner,Cinemark Theatres,Indianapolis,IN,AAIMJ, 39.63948, -86.12787,29
Cinemark South Bend Movies 14,Cinemark Theatres,Mishawaka,IN,AAIPJ, 41.69490, -86.19480,29
Cinemark Valparaiso,Cinemark Theatres,Valparaiso,IN,AAUUF, 41.48190, -87.03180,29
Cinemark Merriam and XD,Cinemark Theatres,Merriam,KS,AALAV, 39.02939, -94.68805,29
Cinemark Ashland,Cinemark Theatres,Ashland,KY,AAIOS, 38.48580, -82.65410,29
Cinemark Florence 14 and XD,Cinemark Theatres,Florence,KY,AAUXE, 38.99090, -84.65130,29
Cinemark Fayette Mall and XD,Cinemark Theatres,Lexington,KY,AAUAP, 37.98370, -84.53063,29
Cinemark Mall St. Matthews and XD,Cinemark Theatres,Louisville,KY,AAWYP, 38.25026, -85.62466,29
Cinemark Tinseltown Louisville and XD,Cinemark Theatres,Louisville,KY,AAIQI, 38.30227, -85.55790,29
Cinemark Preston Crossings 16 and XD,Cinemark Theatres,Louisville,KY,AARFH, 38.10442, -85.67030,29
Cinemark Paducah,Cinemark Theatres,Paducah,KY,AAQLK, 37.07510, -88.69070,29
Cinemark at Richmond Centre,Cinemark Theatres,Richmond,KY,AAVCJ, 37.76330, -84.29090,29
Cinemark Perkins Rowe and XD,Cinemark Theatres,Baton Rouge,LA,AAUIR, 30.38104, -91.09678,29
Cinemark Lake Charles and XD,Cinemark Theatres,Lake Charles,LA,AASWW, 30.20100, -93.22680,29
Cinemark Bistro Lake Charles,Cinemark Theatres,Lake Charles,LA,AAXVH, 30.19425, -93.17463,29
Cinemark Shreveport South Tinseltown and XD,Cinemark Theatres,Shreveport,LA,AAITF, 32.42660, -93.71790,29
Cinemark Tinseltown West Monroe 17,Cinemark Theatres,West Monroe,LA,AAIQN, 32.50770, -92.15900,29
Cinemark At Hampshire Mall and XD,Cinemark Theatres,Hadley,MA,AAPCQ, 42.35890, -72.54900,29
Cinemark West Springfield 15,Cinemark Theatres,West Springfield,MA,AACKT, 42.12680, -72.62720,29
Cinemark Egyptian 24 and XD,Cinemark Theatres,Hanover,MD,AAPDL, 39.14290, -76.73440,29
Cinemark Towson and XD,Cinemark Theatres,Towson,MD,AAXGT, 39.40480, -76.60120,29
Cinemark Flint West 14,Cinemark Theatres,Flint,MI,AACUJ, 43.00390, -83.75280,29
Cinemark Southland Mall and XD,Cinemark Theatres,Taylor,MI,AAXVG, 42.20032, -83.25428,29
Ann Arbor 20 + IMAX,Cinemark Theatres,Ypsilanti,MI,AACUH, 42.22770, -83.68020,29
Cinemark River Hills Mall Movies 8,Cinemark Theatres,Mankato,MN,AAIMU, 44.17000, -93.95250,29
Cinemark Gulfport 16,Cinemark Theatres,Gulfport,MS,AAOBV, 30.44200, -89.09060,29
Cinemark Pearl 17 and XD,Cinemark Theatres,Pearl,MS,AAITJ, 32.26010, -90.13270,29
Cinemark Tupelo Movies 8,Cinemark Theatres,Tupelo,MS,AAINX, 34.31530, -88.70350,29
Cinemark Helena and XD,Cinemark Theatres,Helena,MT,AATLN, 46.59740,-112.03540,29
Cinemark Signature Stadium Kalispell 14,Cinemark Theatres,Kalispell,MT,AAUPH, 48.20180,-114.29480,29
Cinemark Asheboro,Cinemark Theatres,Asheboro,NC,AAREE, 35.66370, -79.76270,29
Cinemark Bistro at The Carolina Asheville,Cinemark Theatres,Asheville,NC,AAVBP, 35.51120, -82.52650,29
Cinemark Bistro Charlotte,Cinemark Theatres,Charlotte,NC,AAVBQ, 35.14070, -80.73970,29
Cinemark Bistro Raleigh,Cinemark Theatres,Raleigh,NC,AAVBO, 35.87090, -78.71680,29
Cinemark Tinseltown Salisbury,Cinemark Theatres,Salisbury,NC,AAIQF, 35.65170, -80.45830,29
Cinemark Rockingham Park and XD,Cinemark Theatres,Salem,NH,AAYSP, 42.77233, -71.23447,29
Cinemark Hazlet 12,Cinemark Theatres,Hazlet,NJ,AACKW, 40.41710, -74.17010,29
Cinemark Somerdale 16 and XD,Cinemark Theatres,Somerdale,NJ,AADKO, 39.85860, -75.01730,29
Cinemark Watchung and XD,Cinemark Theatres,Watchung,NJ,AAYPG, 40.64690, -74.41073,29
Cinemark Willowbrook Mall and XD,Cinemark Theatres,Wayne,NJ,AAYRX, 40.88970, -74.25620,29
Cinemark Century Rio Plex 24 and XD,Cinemark Theatres,Albuquerque,NM,AACWA, 35.14164,-106.60160,29
Cinemark Cinedome Henderson 12,Cinemark Theatres,Henderson,NV,AACEH, 36.02700,-114.96730,29
Cinemark Century Suncoast 16 and XD,Cinemark Theatres,Las Vegas,NV,AAOZL, 36.16920,-115.29560,29
Cinemark Century Orleans 18 and XD,Cinemark Theatres,Las Vegas,NV,AADZY, 36.10080,-115.20060,29
Cinemark Century Santa Fe Station 16 and XD,Cinemark Theatres,Las Vegas,NV,AATKM, 36.25590,-115.22820,29
Cinemark Century Sam's Town 18,Cinemark Theatres,Las Vegas,NV,AAPBY, 36.11160,-115.06180,29
Cinemark Century South Point 16 and XD,Cinemark Theatres,Las Vegas,NV,AATTH, 36.01328,-115.17280,29
Cinemark Century Park Lane 16,Cinemark Theatres,Reno,NV,AAIQG, 39.50570,-119.80030,29
Cinemark Century Summit Sierra,Cinemark Theatres,Reno,NV,AAUIX, 39.40870,-119.75000,29
Cinemark Tinseltown Rochester and IMAX,Cinemark Theatres,Rochester,NY,AAIPN, 43.14500, -77.71830,29
Cinemark The Greene 14 and IMAX,Cinemark Theatres,Beavercreek,OH,AAUJK, 39.69341, -84.10473,29
Cinemark Tinseltown Boardman and XD ,Cinemark Theatres,Boardman,OH,AAIPY, 41.02100, -80.66270,29
Cinemark Western Hills 14,Cinemark Theatres,Cincinnati,OH,AACJT, 39.17410, -84.64150,29
Cinemark Oakley Station and XD,Cinemark Theatres,Cincinnati,OH,AAXAE, 39.16110, -84.43030,29
Cinemark Polaris 18 and XD,Cinemark Theatres,Columbus,OH,AATVF, 40.14687, -82.98618,29
Cinemark Cuyahoga Falls and XD,Cinemark Theatres,Cuyahoga Falls,OH,AAXJK, 41.15150, -81.50860,29
Cinemark Stoneridge Plaza Movies 16,Cinemark Theatres,Gahanna,OH,AAGLU, 40.05260, -82.87390,29
Cinemark Huber Heights 16,Cinemark Theatres,Huber Heights,OH,AACMH, 39.86460, -84.14280,29
Cinemark River Valley Mall and XD,Cinemark Theatres,Lancaster,OH,AAXHY, 39.73020, -82.62810,29
Cinemark Fallen Timbers 14 and XD,Cinemark Theatres,Maumee,OH,AAURY, 41.57760, -83.67920,29
Cinemark Milford 16,Cinemark Theatres,Milford,OH,AAPCK, 39.18030, -84.25090,29
Cinemark Bistro North Canton,Cinemark Theatres,North Canton,OH,AAIOI, 40.87090, -81.42450,29
Cinemark Tinseltown North Canton and XD,Cinemark Theatres,North Canton,OH,AAIPX, 40.87250, -81.43890,29
Cinemark Ontario Towne Center,Cinemark Theatres,Ontario,OH,AASWV, 40.77890, -82.52160,29
Cinemark Levis Commons 12,Cinemark Theatres,Perrysburg,OH,AATBR, 41.54570, -83.59980,29
Cinemark Miami Valley,Cinemark Theatres,Piqua,OH,AAVCS, 40.14670, -84.21050,29
Cinemark Sandusky Mall,Cinemark Theatres,Sandusky,OH,AAWET, 41.41630, -82.67210,29
Cinemark Strongsville at Southpark Mall,Cinemark Theatres,Strongsville,OH,AAUIU, 41.31480, -81.80930,29
Cinemark Franklin Park 16 and XD,Cinemark Theatres,Toledo,OH,AATKZ, 41.69770, -83.64110,29
Cinemark Valley View and XD,Cinemark Theatres,Valley View,OH,AANHI, 41.39840, -81.62680,29
Cinemark Dayton South 16 and XD,Cinemark Theatres,West Carrollton,OH,AAPCL, 39.64220, -84.22530,29
Cinemark Wooster Movies 10,Cinemark Theatres,Wooster,OH,AAIMN, 40.85190, -81.94810,29
Cinemark Colony Square,Cinemark Theatres,Zanesville,OH,AAUCA, 39.98820, -82.02280,29
Cinemark Ada,Cinemark Theatres,Ada,OK,AAXCW, 34.78560, -96.68250,29
Cinemark Broken Arrow,Cinemark Theatres,Broken Arrow,OK,AAWAD, 36.06410, -95.76950,29
Cinemark Tinseltown Oklahoma City and XD,Cinemark Theatres,Oklahoma City,OK,AAITG, 35.53130, -97.47640,29
Cinemark Tulsa and IMAX,Cinemark Theatres,Tulsa,OK,AAOPP, 36.06070, -95.85650,29
Cinemark Cedar Hills 16,Cinemark Theatres,Beaverton,OR,AATBX, 45.49908,-122.81220,29
Cinemark Clackamas Town Center and XD,Cinemark Theatres,Clackamas,OR,AAUNH, 45.43640,-122.57880,29
Cinemark Tinseltown Medford 15,Cinemark Theatres,Medford,OR,AAIQM, 42.33130,-122.86380,29
Cinemark Century Eastport Plaza 16,Cinemark Theatres,Portland,OR,AAJMZ, 45.49289,-122.57880,29
Cinemark Eugene Springfield 17,Cinemark Theatres,Springfield,OR,AAMZT, 44.07470,-123.04110,29
Cinemark Tinseltown Erie,Cinemark Theatres,Erie,PA,AAIPG, 42.05930, -80.08740,29
Cinemark Center Township Marketplace,Cinemark Theatres,Monaca,PA,AASWC, 40.65790, -80.31450,29
Cinemark Monroeville Mall and XD,Cinemark Theatres,Monroeville,PA,AAXBV, 40.42887, -79.79680,29
Cinemark Montage Mountain 20 and XD,Cinemark Theatres,Moosic,PA,AAOHB, 41.36070, -75.67910,29
Cinemark University City Penn 6,Cinemark Theatres,Philadelphia,PA,AAQOG, 39.95310, -75.20293,29
Cinemark North Hills and XD,Cinemark Theatres,Pittsburgh,PA,AAXIW, 40.57900, -80.01600,29
Cinemark Robinson Township and XD,Cinemark Theatres,Pittsburgh,PA,AAVPP, 40.43819, -80.14832,29
Cinemark Stroud Mall and XD,Cinemark Theatres,Stroudsburg,PA,AABPW, 40.99010, -75.22453,29
Cinemark Bluffton,Cinemark Theatres,Bluffton,SC,AAWIY, 32.28408, -80.91054,29
Cinemark Myrtle Beach,Cinemark Theatres,Myrtle Beach,SC,AARGE, 33.69300, -78.91420,29
Cinemark Summerville,Cinemark Theatres,Summerville,SC,AAINZ, 32.95220, -80.16330,29
Cinemark Century East at Dawley Farm,Cinemark Theatres,Sioux Falls,SD,AAVZZ, 43.53741, -96.65574,29
Cinemark Century Sioux Falls 14 and XD,Cinemark Theatres,Sioux Falls,SD,AANYZ, 43.52540, -96.77800,29
Cinemark Tinseltown Oak Ridge,Cinemark Theatres,Oak Ridge,TN,AAJKK, 36.01190, -84.25560,29
Cinemark Abilene and XD,Cinemark Theatres,Abilene,TX,AAYFI, 32.49138, -99.72430,29
Cinemark Century Abilene 12,Cinemark Theatres,Abilene,TX,AAITK, 32.40480, -99.76780,29
Cinemark Allen 16 and XD,Cinemark Theatres,Allen,TX,AATZM, 33.14517, -96.67612,29
Cinemark Amarillo Hollywood 16 and XD,Cinemark Theatres,Amarillo,TX,AAIQJ, 35.11360,-101.91070,29
Cinemark Athens Cinema 4,Cinemark Theatres,Athens,TX,AAKJQ, 32.19860, -95.85390,29
Cinemark Southpark Meadows,Cinemark Theatres,Austin,TX,AAUIY, 30.16563, -97.78805,29
Cinemark Beaumont 15 and XD,Cinemark Theatres,Beaumont,TX,AAIPU, 30.03710, -94.15190,29
Cinemark Hill Country Galleria,Cinemark Theatres,Bee Cave,TX,AAUNJ, 30.30680, -97.94030,29
Cinemark Cinema Big Spring 4,Cinemark Theatres,Big Spring,TX,AATZW, 32.23460,-101.49430,29
Cinemark Sunrise Mall and XD,Cinemark Theatres,Brownsville,TX,AAOVX, 25.96600, -97.47440,29
Cinemark Cedar Hill,Cinemark Theatres,Cedar Hill,TX,AATBQ, 32.58880, -96.94630,29
Cinemark Cedar Park,Cinemark Theatres,Cedar Park,TX,AAUNK, 30.52460, -97.81810,29
Cinemark Cleburne Cinema 6,Cinemark Theatres,Cleburne,TX,AAINH, 32.33670, -97.41710,29
Cinemark College Station and XD,Cinemark Theatres,College Station,TX,AAIRK, 30.63560, -96.30306,29
Cinemark Century Corpus Christi 16 XD and IMAX,Cinemark Theatres,Corpus Christi,TX,AANER, 27.69830, -97.35260,29
Cinemark Cypress and XD,Cinemark Theatres,Cypress,TX,AATUI, 29.96947, -95.69145,29
CUT! by Cinemark Cypress - Dine-in Theatre & Bar,Cinemark Theatres,Cypress,TX,AAYTY, 29.99499, -95.75402,29
Cinemark Dallas XD and IMAX,Cinemark Theatres,Dallas,TX,AACBT, 32.90990, -96.87260,29
Cinemark Del Rio Movies 8,Cinemark Theatres,Del Rio,TX,AAIPW, 29.38830,-100.90490,29
Cinemark Denton 14,Cinemark Theatres,Denton,TX,AATFB, 33.17552, -97.09934,29
Cinemark Mall de Las Aguilas,Cinemark Theatres,Eagle Pass,TX,AAKLW, 28.70200,-100.48300,29
Cinemark Bistro Edinburg,Cinemark Theatres,Edinburg,TX,AAXAH, 26.26436, -98.19060,29
Gamescape by Cinemark at El Paso,Cinemark Theatres,El Paso,TX,AAYZR, 31.68994,-106.26907,29
Cinemark Tinseltown Las Palmas XD and ScreenX,Cinemark Theatres,El Paso,TX,AAIPZ, 31.72550,-106.30870,29
Cinemark Cielo Vista Mall 14 and XD,Cinemark Theatres,El Paso,TX,AATXC, 31.77595,-106.37780,29
Cinemark East Montana and XD,Cinemark Theatres,El Paso,TX,AAXBQ, 31.80930,-106.24490,29
Cinemark West El Paso XD and ScreenX,Cinemark Theatres,El Paso,TX,AAQYJ, 31.83265,-106.56430,29
Cinemark Alliance Town Center and XD,Cinemark Theatres,Fort Worth,TX,AAWQH, 32.90936, -97.31446,29
Cinemark Rave Ridgmar 13 and XD,Cinemark Theatres,Fort Worth,TX,AARFI, 32.73725, -97.43428,29
CUT! by Cinemark Frisco - Dine-in Theatre, Kitchen,Cinemark Theatres,Frisco,TX,AAYOB, 33.21704,-96.82228
Cinemark Frisco Square and XD,Cinemark Theatres,Frisco,TX,AAWFX, 33.14988, -96.83759,29
Cinemark Grand Prairie,Cinemark Theatres,Grand Prairie,TX,AACBV, 32.67319, -97.00941,29
Cinemark Tinseltown Grapevine and XD,Cinemark Theatres,Grapevine,TX,AACBR, 32.91961, -97.08553,29
Cinemark Harker Heights,Cinemark Theatres,Harker Heights,TX,AAUUW, 31.07150, -97.66980,29
Cinemark Harlingen 16 and XD,Cinemark Theatres,Harlingen,TX,AAOJJ, 26.18733, -97.71442,29
Cinemark Memorial City,Cinemark Theatres,Houston,TX,AAUIS, 29.77970, -95.53590,29
Cinemark Tinseltown Houston 290 and XD,Cinemark Theatres,Houston,TX,AACMR, 29.84662, -95.49654,29
Cinemark North East Mall 18 and XD,Cinemark Theatres,Hurst,TX,AATCG, 32.83076, -97.19943,29
Cinemark Tinseltown Jacinto City and XD,Cinemark Theatres,Jacinto City,TX,AAFYH, 29.77180, -95.23070,29
Cinemark Katy and XD,Cinemark Theatres,Katy,TX,AAMZU, 29.78678, -95.77460,29
Cinemark Lancaster Movies 14,Cinemark Theatres,Lancaster,TX,AACBS, 32.60390, -96.81960,29
Cinemark Mall del Norte,Cinemark Theatres,Laredo,TX,AAUKD, 27.54590, -99.50270,29
Cinemark Lewisville and XD,Cinemark Theatres,Lewisville,TX,AAUDU, 33.00660, -96.97120,29
Cinemark Tinseltown Lubbock and XD,Cinemark Theatres,Lubbock,TX,AAKRH, 33.51970,-101.87040,29
Cinemark Lufkin,Cinemark Theatres,Lufkin,TX,AATVJ, 31.31453, -94.71678,29
Cinemark Mansfield and XD,Cinemark Theatres,Mansfield,TX,AATNP, 32.59160, -97.16340,29
Cinemark Hollywood USA McAllen North,Cinemark Theatres,McAllen,TX,AAINF, 26.23800, -98.21360,29
Cinemark North McKinney and XD,Cinemark Theatres,McKinney,TX,AAYOY, 33.23100, -96.65210,29
Cinemark Tinseltown USA Mission and XD,Cinemark Theatres,Mission,TX,AAITH, 26.19610, -98.29510,29
Cinemark Missouri City and XD,Cinemark Theatres,Missouri City,TX,AAYXM, 29.53378, -95.50831,29
Cinemark Valley Ranch and XD,Cinemark Theatres,New Caney,TX,AAYIC, 30.13507, -95.24464,29
Cinemark Century Odessa 12,Cinemark Theatres,Odessa,TX,AAGBB, 31.89620,-102.30970,29
Cinemark Paris Movies 8,Cinemark Theatres,Paris,TX,AAIPP, 33.68370, -95.54430,29
Cinemark Hollywood Pasadena and XD,Cinemark Theatres,Pasadena,TX,AACCV, 29.69200, -95.15350,29
Cinemark Pearland and XD,Cinemark Theatres,Pearland,TX,AATLV, 29.55580, -95.38760,29
Cinemark Pflugerville 20 and XD,Cinemark Theatres,Pflugerville,TX,AAEQK, 30.44769, -97.66361,29
Cinemark Stone Hill Town Center,Cinemark Theatres,Pflugerville,TX,AAWIH, 30.46830, -97.59910,29
Cinemark Pharr Town Center and XD,Cinemark Theatres,Pharr,TX,AAXDC, 26.20440, -98.20300,29
Cinemark Legacy and XD,Cinemark Theatres,Plano,TX,AANHH, 33.07083, -96.69204,29
Cinemark Central Plano,Cinemark Theatres,Plano,TX,AACBZ, 33.02514, -96.76852,29
Cinemark West Plano and XD,Cinemark Theatres,Plano,TX,AACUT, 33.04890, -96.82900,29
Cinemark Roanoke and XD,Cinemark Theatres,Roanoke,TX,AAXPT, 32.99926, -97.21883,29
Cinemark Rockwall 14 and XD,Cinemark Theatres,Rockwall,TX,AATTA, 32.87080, -96.43990,29
Cinemark Rosenberg 12,Cinemark Theatres,Rosenberg,TX,AATYQ, 29.54674, -95.76198,29
Cinemark Round Rock 14,Cinemark Theatres,Round Rock,TX,AAUEM, 30.56280, -97.69250,29
Cinemark Tinseltown USA San Angelo,Cinemark Theatres,San Angelo,TX,AAMFV, 31.43393,-100.49620,29
Cinemark McCreless Market,Cinemark Theatres,San Antonio,TX,AAUWG, 29.37651, -98.45830,29
Cinemark Movies 16,Cinemark Theatres,San Antonio,TX,AAGNO, 29.48794, -98.58725,29
Cinemark Sherman,Cinemark Theatres,Sherman,TX,AARES, 33.63590, -96.60870,29
Cinemark Spring-Klein and XD,Cinemark Theatres,Spring,TX,AAXAA, 30.08105, -95.51810,29
Cinemark Stephenville Cinema 6,Cinemark Theatres,Stephenville,TX,AAINK, 32.20620, -98.23250,29
Cinemark Temple and XD,Cinemark Theatres,Temple,TX,AAXCS, 31.08540, -97.39780,29
Cinemark Texarkana 14,Cinemark Theatres,Texarkana,TX,AATCD, 33.46330, -94.08160,29
Cinemark The Woodlands and XD,Cinemark Theatres,The Woodlands,TX,AACCT, 30.16339, -95.46845,29
Cinemark Victoria 12,Cinemark Theatres,Victoria,TX,AAPJQ, 28.86694, -96.99359,29
Cinemark Waco and XD,Cinemark Theatres,Waco,TX,AAYVZ, 31.50431, -97.15232,29
Cinemark NASA and XD,Cinemark Theatres,Webster,TX,AAOYR, 29.52420, -95.12620,29
Cinemark Weslaco Movies 10,Cinemark Theatres,Weslaco,TX,AAIPR, 26.17190, -98.01100,29
Cinemark Wichita Falls 14,Cinemark Theatres,Wichita Falls,TX,AATSY, 33.88480, -98.52800,29
Cinemark American Fork,Cinemark Theatres,American Fork,UT,AARET, 40.41020,-111.81400,29
Cinemark Draper and XD,Cinemark Theatres,Draper,UT,AAWIU, 40.53190,-111.89120,29
Cinemark Farmington at Station Park and XD,Cinemark Theatres,Farmington,UT,AAWIX, 40.98200,-111.90650,29
Cinemark Layton and XD,Cinemark Theatres,Layton,UT,AAINU, 41.07970,-111.97810,29
Cinemark Century Sandy Union Heights 16,Cinemark Theatres,Midvale,UT,AATTG, 40.61194,-111.85470,29
Cinemark Tinseltown Ogden 14,Cinemark Theatres,Ogden,UT,AAIQC, 41.19550,-111.97600,29
Cinemark University Mall,Cinemark Theatres,Orem,UT,AAVAE, 40.27830,-111.67630,29
Cinemark Provo 16,Cinemark Theatres,Provo,UT,AAODX, 40.21970,-111.66250,29
Cinemark Riverton and XD,Cinemark Theatres,Riverton,UT,AAYWY, 40.51030,-111.99590,29
Cinemark Century Salt Lake 16 and XD,Cinemark Theatres,Salt Lake City,UT,AAIWV, 40.70010,-111.88670,29
Cinemark Sugarhouse Movies 10,Cinemark Theatres,Salt Lake City,UT,AAGNL, 40.72250,-111.85780,29
Cinemark Spanish Fork and XD,Cinemark Theatres,Spanish Fork,UT,AAYHD, 40.11496,-111.65490,29
Cinemark Jordan Landing 24 and XD,Cinemark Theatres,West Jordan,UT,AAOEJ, 40.61557,-111.98260,29
Cinemark West Valley and XD,Cinemark Theatres,West Valley,UT,AAXFM, 40.71538,-112.01940,29
Cinemark Centreville,Cinemark Theatres,Centreville,VA,AACKO, 38.82770, -77.44070,29
Cinemark Chesapeake Square and XD,Cinemark Theatres,Chesapeake,VA,AAWMY, 36.82659, -76.41472,29
Cinemark Fairfax Corner and XD,Cinemark Theatres,Fairfax,VA,AARCJ, 38.85904, -77.35673,29
Cinemark City Center and XD,Cinemark Theatres,Newport News,VA,AAXGD, 37.08500, -76.47230,29
Cinemark Lincoln Square,Cinemark Theatres,Bellevue,WA,AATVL, 47.61734,-122.20180,29
Cinemark Reserve Lincoln Square Dine-In – 21+,Cinemark Theatres,Bellevue,WA,AAYFJ, 47.61493,-122.20160,29
Cinemark Century Federal Way and XD,Cinemark Theatres,Federal Way,WA,AAUJZ, 47.31350,-122.30420,29
Cinemark Totem Lake Kirkland and XD,Cinemark Theatres,Kirkland,WA,AAYUS, 47.71286,-122.18230,29
Cinemark Century Olympia,Cinemark Theatres,Olympia,WA,AAUJA, 47.04060,-122.93070,29
Cinemark Century Point Ruston and XD,Cinemark Theatres,Tacoma,WA,AAXSD, 47.29752,-122.50310,29
Cinemark Grand Cinemas,Cinemark Theatres,Walla Walla,WA,AAQTQ, 46.05838,-118.35450,29
Cinemark Tinseltown USA Kenosha,Cinemark Theatres,Kenosha,WI,AAIQH, 42.57037, -87.89219,29
Cinemark Huntington Mall,Cinemark Theatres,Barboursville,WV,AAVKY, 38.42090, -82.26210,29
Cinemark Meadowbrook Mall,Cinemark Theatres,Bridgeport,WV,AATXV, 39.29710, -80.24460,29
The Majestic 11,Cinemaworld,Vero Beach,FL,AAQMN, 27.62948, -80.39249,30
CWTheaters Lincoln Mall 16,Cinemaworld,Lincoln,RI,AATWE, 41.93540, -71.48140,30
Cinépolis Luxury Cinemas - La Costa Paseo Real,Cinepolis,Carlsbad,CA,AAWPP, 33.10521,-117.26710,31
Cinepolis Luxury Cinema La Costa Town Square,Cinepolis,Carlsbad,CA,AAYSZ, 33.08270,-117.23400,31
Cinépolis Luxury Cinemas Inglewood IMAX,Cinepolis,Inglewood,CA,AAYYG, 33.94640,-118.34400,31
Cinépolis Luxury Cinemas - Laguna Niguel,Cinepolis,Laguna Niguel,CA,AAWRY, 33.49209,-117.69840,31
Cinépolis Pico Rivera,Cinepolis,Pico Rivera,CA,AAURQ, 34.00370,-118.08970,31
Cinépolis Luxury Cinemas - Rancho Santa Margarita,Cinepolis,Rancho Santa Margarita,CA,AAWVV, 33.64366,-117.59490,31
Cinépolis Luxury Cinemas - Del Mar,Cinepolis,San Diego,CA,AAWLA, 32.95228,-117.23240,31
Cinépolis Luxury Cinemas San Mateo,Cinepolis,San Mateo,CA,AAYRV, 37.54004,-122.29850,31
Cinépolis Vista,Cinepolis,Vista,CA,AARDU, 33.22025,-117.24200,31
Cinépolis Luxury Cinemas Westlake Village,Cinepolis,Westlake Village,CA,AAWVP, 34.15826,-118.82300,31
Cinépolis West Hartford,Cinepolis,West Hartford,CT,AAUQY, 41.76038, -72.74163,31
Cinépolis Polk County IMAX,Cinepolis,Davenport,FL,AAXOD, 28.23610, -81.64350,31
Cinépolis Luxury Cinemas Jupiter,Cinepolis,Jupiter,FL,AAXPQ, 26.93585, -80.07960,31
Cinépolis Luxury Cinemas Coconut Grove,Cinepolis,Miami,FL,AAWAV, 25.72810, -80.24160,31
Cinepolis Luxury Cinema Hamlin,Cinepolis,Winter Garden,FL,AAYLE, 28.47350, -81.62450,31
Cinepolis Luxury Cinema Gaithersburg,Cinepolis,Gaithersburg,MD,AAYQN, 39.12196, -77.23523,31
Cinépolis Mansfield,Cinepolis,Hackettstown,NJ,AAMRT, 40.82430, -74.85170,31
Cinépolis Dayton,Cinepolis,Miamisburg ,OH,AAYGE, 39.59874, -84.23407,31
Moviehouse & Eatery SW Austin,Cinepolis,Austin,TX,AAYJW, 30.25450, -97.86830,31
Moviehouse & Eatery NW Austin,Cinepolis,Austin,TX,AAWUR, 30.41980, -97.84580,31
Cinepolis Luxury Cinema Victory Park,Cinepolis,Dallas,TX,AAYKN, 32.78680, -96.80930,31
Cinépolis  Euless,Cinepolis,Euless,TX,AAYFM, 32.87503, -97.10482,31
Moviehouse & Eatery Flower Mound,Cinepolis,Flower Mound,TX,AAXPP, 32.99722, -97.06550,31
Moviehouse & Eatery Keller,Cinepolis,Keller,TX,AAXKA, 32.93110, -97.23010,31
Moviehouse & Eatery McKinney,Cinepolis,McKinney,TX,AAXYR, 33.13020, -96.72370,31
Cinépolis Luxury Cinemas The Woodlands,Cinepolis,Tomball,TX,AAYRW, 30.14585, -95.55003,31
Cinergy Wheeling,Cinergy Entertainment,Wheeling,IL,AAYSD, 42.13753, -87.92712,32
Cinergy Dine-In Cinemas,Cinergy Entertainment,Charlotte,NC,AAYSG, 35.36633, -80.78600,32
Cinergy Tulsa,Cinergy Entertainment,Tulsa,OK,AAIMK, 36.06401, -95.88906,32
Cinergy Amarillo featuring EPIC,Cinergy Entertainment,Amarillo,TX,AAYMD, 35.15295,-101.94460,32
Cinergy Copperas Cove,Cinergy Entertainment,Copperas Cove,TX,AAWDT, 31.11200, -97.87200,32
Cinergy Cinemas Granbury,Cinergy Entertainment,Granbury,TX,AAOEW, 32.43230, -97.76700,32
Cinergy Cinemas Marble Falls,Cinergy Entertainment,Marble Falls,TX,AAVEY, 30.59807, -98.27241,32
Cinergy Midland featuring Epic,Cinergy Entertainment,Midland,TX,AAXDO, 31.96073,-102.14560,32
Cinergy Odessa featuring Epic,Cinergy Entertainment,Odessa,TX,AAXZP, 31.92400,-102.28760,32
City Base Entertainment,City Base Cinema,San Antonio,TX,AAWPA, 29.35419, -98.45121,33
CityPlex 12 Newark,Cityplex,Newark,NJ,AABPM, 40.73326, -74.19544,34
Classic Cinemas Cinema 12 XQ,Classic Cinemas,Carpentersville,IL,AAFRU, 42.11750, -88.26430,35
Classic Cinemas Tivoli,Classic Cinemas,Downers Grove,IL,AAFSF, 41.79590, -88.01130,35
Classic Cinemas Elk Grove XQ,Classic Cinemas,Elk Grove Village,IL,AAFRV, 42.00157, -88.00414,35
Classic Cinemas York XQ,Classic Cinemas,Elmhurst,IL,AAFSJ, 41.90160, -87.94040,35
Classic Cinemas Fox Lake,Classic Cinemas,Fox Lake,IL,AAFRW, 42.39650, -88.17900,35
Classic Cinemas Lindo,Classic Cinemas,Freeport,IL,AAFRZ, 42.29760, -89.61910,35
Classic Cinemas Paramount,Classic Cinemas,Kankakee,IL,AAFSC, 41.12190, -87.86370,35
Classic Cinemas Meadowview XQ,Classic Cinemas,Kankakee,IL,AAFSA, 41.13460, -87.87380,35
Classic Cinemas La Grange,Classic Cinemas,La Grange,IL,AAIUX, 41.81268, -87.86987,35
Classic Cinemas North Riverside XQ,Classic Cinemas,North Riverside,IL,AAVBU, 41.85020, -87.80990,35
Classic Cinemas Lake Theatre,Classic Cinemas,Oak Park,IL,AAFRY, 41.88881, -87.80141,35
Classic Cinemas Kendall 11,Classic Cinemas,Oswego,IL,AAIWI, 41.71796, -88.31500,35
Classic Cinemas Cinema 7,Classic Cinemas,Sandwich,IL,AAMHN, 41.64940, -88.60080,35
Classic Cinemas Charlestowne 18 XQ,Classic Cinemas,St. Charles,IL,AAQAW, 41.92429, -88.27015,35
Classic Cinemas Woodstock,Classic Cinemas,Woodstock,IL,AAFSI, 42.31780, -88.44740,35
Classic Cinemas Beloit XQ,Classic Cinemas,Beloit,WI,AAJOX, 42.52110, -88.98350,35
Capitol Theatre,Cleveland Cinemas,Cleveland,OH,AAVRS, 41.48420, -81.73030,36
Cedar Lee Theatre,Cleveland Cinemas,Cleveland Heights,OH,AAGYU, 41.50030, -81.56530,36
Apollo Theatre,Cleveland Cinemas,Oberlin,OH,AAKVS, 41.29150, -82.21690,36
College Station Theaters,College Station Theaters,Springfield,MO,AAVCK, 37.20950, -93.29492,37
Consolidated Theatres Pearlridge,Consolidated Theatres,Aiea,HI,AABWH, 21.38730,-157.94640,38
Consolidated Theatres Kahala,Consolidated Theatres,Honolulu,HI,AABWG, 21.27845,-157.78750,38
Consolidated Ward Theatres with TITAN LUXE,Consolidated Theatres,Honolulu,HI,AAPKA, 21.29451,-157.85340,38
Olino by Consolidated Theatres with TITAN LUXE,Consolidated Theatres,Kapolei,HI,AAXXW, 21.33570,-158.05150,38
Consolidated Theatres Kapolei,Consolidated Theatres,Kapolei,HI,AABWJ, 21.33620,-158.09110,38
Consolidated Theatres Mililani with TITAN LUXE,Consolidated Theatres,Mililani,HI,AABWF, 21.45060,-158.01940,38
Contra Costa Stadium Cinema,Contra Costa Cinema,Martinez,CA,AAACG, 37.99391,-122.11860,39
Barstow Station Cinema is D'Place,D'Place Entertainment,Barstow,CA,AAKCP, 34.89470,-117.00460,40
River Village Cinema is D'Place,D'Place Entertainment,Bonsall,CA,AACYD, 33.29648,-117.22160,40
Mary Pickford is D'Place,D'Place Entertainment,Cathedral City,CA,AAXXI, 33.78100,-116.46300,40
Dinuba Cinema 6 is D'Place ,D'Place Entertainment,Dinuba,CA,AAWDM, 36.53870,-119.38900,40
Jackson Cinema is D'Place,D'Place Entertainment,Jackson,CA,AAKDW, 38.34246,-120.76540,40
Dipson Amherst Theatre,Dipson Theatres,Buffalo,NY,AAHIW, 42.95780, -78.81870,41
Dipson McKinley Mall 6,Dipson Theatres,Buffalo,NY,AACSR, 42.78520, -78.79920,41
Flix Stadium 10,Dipson Theatres,Depew,NY,AAHJA, 42.87881, -78.69368,41
Dipson Lakewood Cinema 8,Dipson Theatres,Lakewood,NY,AALLT, 42.09830, -79.34210,41
The Capitol Theatre,Dipson Theatres,Niagara Falls,NY,AANQV, 43.08660, -78.99360,41
Movies 10,Dipson Theatres,Rochester,NY,AAIPM, 43.11266, -77.62344,41
The District Cinema,Dipson Theatres,Muncy,PA,AARNC, 41.23758, -76.82748,41
Silver Star Cinemas,Dipson Theatres,Warren,PA,AAPJU, 41.89870, -79.14960,41
Downtown Cinemas,Downtown Cinemas,Las Vegas,NV,AAYVM, 36.16179,-115.14880,42
Bruin Theater,Eastern NC Cinemas,New Bern,NC,AAKKV, 35.11838, -77.07645,43
Bear Town Cinema 6,Eastern NC Cinemas,New Bern,NC,AAWKA, 35.09540, -77.08500,43
El Capitan Theatre,El Capitan Theatre,Hollywood,CA,AACON, 34.10140,-118.33990,45
EVO Entertainment + EVX + IMAX - Delray Beach,Evo Entertainment,Delray Beach,FL,AAWXN, 26.45360, -80.18990,47
EVO Entertainment + EVX - Cary,Evo Entertainment,Cary,NC,AAXMX, 35.85019, -78.89200,47
ShowBiz Cinemas Edmond + SDX,Evo Entertainment,Edmond,OK,AAYNU, 35.68600, -97.42350,47
EVO Cinemas Belterra Village + IMAX,Evo Entertainment,Austin,TX,AAYIK, 30.20447, -97.98380,47
Violet Crown Austin,Evo Entertainment,Austin,TX,AAWJB, 30.26570, -97.74810,47
ShowBiz Cinemas + IMAX - Baytown,Evo Entertainment,Baytown,TX,AAXXA, 29.81930, -94.89800,47
Evo Entertainment Addison + EVX,Evo Entertainment,Dallas,TX,AAWZA, 32.95460, -96.81288,47
Showbiz Cinemas + IMAX – Liberty Lakes,Evo Entertainment,Houston,TX,AAYCO, 29.83120, -95.17350,47
ShowBiz Cinemas Fall Creek + SDX,Evo Entertainment,Humble,TX,AAXXB, 29.93650, -95.24530,47
EVO Entertainment + EVX + IMAX - Kyle ,Evo Entertainment,Kyle,TX,AAXKM, 30.02870, -97.85450,47
EVO Cinemas Creekside Town Center,Evo Entertainment,New Braunfels,TX,AAWOG, 29.72858, -98.07250,47
EVO Entertainment San Marcos,Evo Entertainment,San Marcos,TX,AAYBE, 29.88610, -97.92330,47
EVO Entertainment Schertz + EVX,Evo Entertainment,Schertz,TX,AAYNQ, 29.60720, -98.26950,47
EVO Entertainment Southlake Town Square + EVX,Evo Entertainment,Southlake,TX,AAUAC, 32.94474, -97.13044,47
Times Square Grand Slam,Evo Entertainment,Tyler,TX,AATGX, 32.29290, -95.30240,47
EVO Entertainment Waxahachie + IMAX,Evo Entertainment,Waxahachie,TX,AAVLR, 32.40020, -96.81900,47
Violet Crown Charlottesville,Evo Entertainment,Charlottesville,VA,AAXRX, 38.03080, -78.48250,47
EVO Entertainment + EVX - Fredericksburg,Evo Entertainment,Fredericksburg,VA,AAVZQ, 38.28882, -77.50943,47
Anacortes Cinemas,Far Away Entertainment,Anacortes,WA,AAUZI, 48.51890,-122.61410,48
Bainbridge Cinemas,Far Away Entertainment,Bainbridge Island,WA,AANVB, 47.62800,-122.52000,48
Historic Admiral,Far Away Entertainment,Seattle,WA,AAHAU, 47.58290,-122.38540,48
Varsity Theatre,Far Away Entertainment,Seattle,WA,AAXMK, 47.66070,-122.31310,48
Stanwood Cinemas,Far Away Entertainment,Stanwood,WA,AANHT, 48.23770,-122.32670,48
FatCats Gilbert Recline & Dine Cinema 6,Fat Cats,Gilbert,AZ,AAXQV, 33.37802,-111.74140,49
FatCats Mesa,Fat Cats,Mesa,AZ,AAYRO, 33.47350,-111.70750,49
FatCats Queen Creek,Fat Cats,Queen Creek,AZ,AAYUY, 33.22025,-111.64160,49
FatCats Surprise,Fat Cats,Surprise,AZ,AAYXS, 33.60220,-112.41450,49
FatCats Rexburg,Fat Cats,Rexburg,ID,AAWHN, 43.83520,-111.77800,49
FatCats Bluffdale,Fat Cats,Bluffdale,UT,AAYXR, 40.49908,-111.93440,49
FatCats Clinton,Fat Cats,Clinton,UT,AAYZH, 41.14140,-112.06600,49
FatCats Saratoga Springs,Fat Cats,Saratoga Springs,UT,AAYPR, 40.37585,-111.92120,49
Westwood Plaza Theatre,Fleegle Cinemas,Johnstown,PA,AANZN, 40.32350, -78.95580,50
Latrobe 30 Theatre & Café,Fleegle Cinemas,Latrobe,PA,AAVHD, 40.28490, -79.39070,50
Flix Brewhouse Des Moines,Flix Brewhouse,Des Moines,IA,AAXPG, 41.62970, -93.69780,51
Flix Brewhouse Carmel,Flix Brewhouse,Carmel,IN,AAXPH, 39.95958, -86.11782,51
Flix Brewhouse Albuquerque Tramway,Flix Brewhouse,Albuquerque,NM,AABBS, 35.09620,-106.49850,51
Flix Brewhouse Albuquerque,Flix Brewhouse,Albuquerque,NM,AAXZN, 35.15908,-106.68110,51
Flix Brewhouse Oklahoma City,Flix Brewhouse,Oklahoma City,OK,AAYTD, 35.56018, -97.51779,51
Flix Brewhouse El Paso,Flix Brewhouse,El Paso,TX,AAYQK, 31.88940,-106.58220,51
Flix Brewhouse Little Elm,Flix Brewhouse,Frisco,TX,AAYJA, 33.15495, -96.89098,51
Flix Brewhouse Mansfield,Flix Brewhouse,Mansfield,TX,AAYYN, 32.57166, -97.11559,51
Flix Brewhouse Round Rock,Flix Brewhouse,Round Rock,TX,AAWKE, 30.48846, -97.68003,51
Flix Brewhouse San Antonio,Flix Brewhouse,San Antonio,TX,AAYST, 29.42541, -98.71252,51
Flix Brewhouse Madison,Flix Brewhouse,Madison,WI,AAYIZ, 43.12442, -89.30612,51
State 5 Theatre,Fridley Theatres,Algona,IA,AALDS, 43.06900, -94.23480,52
Carroll 5 Theatre,Fridley Theatres,Carroll,IA,AALAC, 42.06435, -94.87040,52
Cinema 4 Theatres,Fridley Theatres,Centerville,IA,AAVFS, 40.74100, -92.86790,52
American Theatre,Fridley Theatres,Cherokee,IA,AALDU, 42.74991, -95.55281,52
Viking Theatre,Fridley Theatres,Decorah,IA,AALAD, 43.30543, -91.79366,52
The Fleur Cinema and Cafe,Fridley Theatres,Des Moines,IA,AALPN, 41.54334, -93.64169,52
Strand Theatre 3,Fridley Theatres,Grinnell,IA,AAVFT, 41.74360, -92.72570,52
Paramount 7,Fridley Theatres,Indianola,IA,AALET, 41.36000, -93.55940,52
Plaza 9 Theatres,Fridley Theatres,Marshalltown,IA,AALAJ, 42.01670, -92.91210,52
Palms 10 Theatre,Fridley Theatres,Muscatine,IA,AAMWU, 41.44150, -91.03020,52
The Trio,Fridley Theatres,Oskaloosa,IA,AAYZL, 41.29420, -92.67319,52
Copper Creek 9 Theatres,Fridley Theatres,Pleasant Hill,IA,AAONV, 41.60125, -93.52433,52
Cinema 5 Theatres,Fridley Theatres,Sioux Center,IA,AAVGC, 43.07920, -96.17550,52
The Palms Theatres - Southpark,Fridley Theatres,Spencer,IA,AAUTN, 43.12660, -95.15820,52
Vista 3 Theatres,Fridley Theatres,Storm Lake,IA,AALFH, 42.64610, -95.20060,52
State Theatre,Fridley Theatres,Washington,IA,AALOW, 41.29830, -91.69120,52
Palms Theatres & IMAX,Fridley Theatres,Waukee,IA,AAYLT, 41.61185, -93.88451,52
Rivoli Theatre 3,Fridley Theatres,Hastings,NE,AAKSO, 40.58550, -98.38810,52
Galaxy Theatres Tucson,Galaxy Theatres,Tucson,AZ,AAYNF, 32.21984,-110.77670,53
Galaxy Porterville 9,Galaxy Theatres,Porterville,CA,AAKAM, 36.07850,-119.03710,53
Galaxy Riverbank,Galaxy Theatres,Riverbank,CA,AAPAK, 37.73343,-120.95000,53
Galaxy Mission Grove,Galaxy Theatres,Riverside,CA,AACYF, 33.91488,-117.33200,53
Galaxy Tulare,Galaxy Theatres,Tulare,CA,AATFL, 36.22834,-119.33860,53
Galaxy Carson City,Galaxy Theatres,Carson City,NV,AAUON, 39.13130,-119.77620,53
Galaxy Green Valley,Galaxy Theatres,Henderson,NV,AAWXZ, 36.07217,-115.07930,53
Galaxy Boulevard Mall,Galaxy Theatres,Las Vegas,NV,AAYPK, 36.12324,-115.13410,53
Galaxy Cannery,Galaxy Theatres,North Las Vegas,NV,AATXD, 36.23836,-115.12050,53
Galaxy Victorian,Galaxy Theatres,Sparks,NV,AAYNE, 39.53658,-119.76360,53
Galaxy Legends,Galaxy Theatres,Sparks,NV,AAXEU, 39.53155,-119.72480,53
Galaxy Austin,Galaxy Theatres,Austin,TX,AAQCN, 30.32911, -97.70815,53
Galaxy Grandscape,Galaxy Theatres,The Colony,TX,AAYYJ, 33.07424, -96.86663,53
Galaxy Gig Harbor,Galaxy Theatres,Gig Harbor,WA,AAUSX, 47.30074,-122.57790,53
Galaxy Monroe,Galaxy Theatres,Monroe,WA,AAOZG, 47.86547,-121.97640,53
Beacon Brooksville Cinemas,Georgia Theatre Company,Brooksville,FL,AAOQD, 28.53350, -82.51280,54
University 16 Cinemas,Georgia Theatre Company,Athens,GA,AAWZM, 33.91488, -83.45580,54
Riverwatch Cinemas,Georgia Theatre Company,Augusta,GA,AAXSM, 33.52407, -82.01717,54
Glynn Place Cinemas,Georgia Theatre Company,Brunswick,GA,AAJIF, 31.21750, -81.48660,54
Galleria Mall Cinemas,Georgia Theatre Company,Centerville,GA,AAKJA, 32.61800, -83.68840,54
Commerce Cinemas,Georgia Theatre Company,Commerce,GA,AAUCL, 34.24790, -83.45960,54
Mountain Cinemas,Georgia Theatre Company,East Ellijay,GA,AAYKT, 34.65480, -84.48980,54
Evans Cinemas,Georgia Theatre Company,Evans,GA,AAKID, 33.53492, -82.12844,54
Liberty Cinemas,Georgia Theatre Company,Hinesville,GA,AAQDB, 31.83466, -81.59811,54
Merchants Walk Cinemas,Georgia Theatre Company,Marietta,GA,AADLJ, 33.98050, -84.42480,54
Moultrie Stadium Cinemas,Georgia Theatre Company,Moultrie,GA,AAUTL, 31.17720, -83.80340,54
Habersham Hills,Georgia Theatre Company,Mount Airy,GA,AARLK, 34.57590, -83.46360,54
Pooler Cinemas,Georgia Theatre Company,Pooler,GA,AAWGM, 32.13673, -81.24937,54
Berry Square,Georgia Theatre Company,Rome,GA,AAKBE, 34.30470, -85.17530,54
Island Cinemas,Georgia Theatre Company,Saint Simons Island,GA,AAJIG, 31.18402, -81.38179,54
Gateway Cinemas,Georgia Theatre Company,Thomasville,GA,AAKIR, 30.85040, -83.95340,54
Valdosta Stadium Cinemas,Georgia Theatre Company,Valdosta,GA,AAJIH, 30.83980, -83.32070,54
Houston Lakes,Georgia Theatre Company,Warner Robins,GA,AAVZM, 32.55050, -83.69080,54
Mall Cinemas,Georgia Theatre Company,Waycross,GA,AANLM, 31.20320, -82.32245,54
Beacon Sumter Cinemas,Georgia Theatre Company,Sumter,SC,AANEV, 33.95300, -80.37880,54
Danville Cinemas,Georgia Theatre Company,Danville,VA,AAUTJ, 36.58330, -79.42780,54
Golden Ticket Cinemas Harrison 8,Golden Ticket Cinemas,Harrison,AR,AAKCB, 36.24924, -93.11570,55
Golden Ticket Cinemas Dublin 8,Golden Ticket Cinemas,Dublin,GA,AAJYP, 32.54443, -82.95426,55
Golden Ticket Cinemas Capitol 8,Golden Ticket Cinemas,Madisonville,KY,AAQPB, 37.31956, -87.47742,55
Golden Ticket Cinemas Middlesboro 4,Golden Ticket Cinemas,Middlesboro,KY,AAKHV, 36.61795, -83.70565,55
Golden Ticket Cinemas Kandi 6,Golden Ticket Cinemas,Willmar,MN,AAJSQ, 45.10669, -95.03977,55
Golden Ticket Cinemas Meridian 9,Golden Ticket Cinemas,Meridian,MS,AALZZ, 32.35924, -88.67533,55
Golden Ticket Cinemas Butte 6,Golden Ticket Cinemas,Butte,MT,AALRS, 45.97988,-112.50590,55
